{
"type": "FeatureCollection",
"crs": { "type": "name", "properties": { "name": "urn:ogc:def:crs:OGC:1.3:CRS84" } },
                                                                                
"features": [
{ "type": "Feature", "properties": { "id": 1.000000, "osm_id": 260633604.000000, "name": "Narl??dere", "type": "town", "z_order": 6.000000, "population": 65000.000000 }, "geometry": { "type": "Point", "coordinates": [ 26.991662050009609, 38.394740247404087 ] } },
{ "type": "Feature", "properties": { "id": 2.000000, "osm_id": 260633607.000000, "name": "G??zelbah??e", "type": "town", "z_order": 6.000000, "population": 30000.000000 }, "geometry": { "type": "Point", "coordinates": [ 26.886172194352554, 38.362797233504978 ] } },
{ "type": "Feature", "properties": { "id": 3.000000, "osm_id": 260633626.000000, "name": "Buca", "type": "town", "z_order": 6.000000, "population": 490000.000000 }, "geometry": { "type": "Point", "coordinates": [ 27.176830025776979, 38.375318623379769 ] } },
{ "type": "Feature", "properties": { "id": 4.000000, "osm_id": 260633635.000000, "name": "Bal??ova", "type": "town", "z_order": 6.000000, "population": 80000.000000 }, "geometry": { "type": "Point", "coordinates": [ 27.046804998426552, 38.392398176019327 ] } },
{ "type": "Feature", "properties": { "id": 5.000000, "osm_id": 260633638.000000, "name": "Gaziemir", "type": "town", "z_order": 6.000000, "population": 135000.000000 }, "geometry": { "type": "Point", "coordinates": [ 27.13153497539858, 38.327512270991548 ] } },
{ "type": "Feature", "properties": { "id": 6.000000, "osm_id": 260633642.000000, "name": "Bornova", "type": "town", "z_order": 6.000000, "population": 440000.000000 }, "geometry": { "type": "Point", "coordinates": [ 27.220555229509984, 38.466400322757664 ] } },
{ "type": "Feature", "properties": { "id": 7.000000, "osm_id": 428039507.000000, "name": "??zmir", "type": "city", "z_order": 7.000000, "population": 4223545.000000 }, "geometry": { "type": "Point", "coordinates": [ 27.144473951689491, 38.415342043395242 ] } },
{ "type": "Feature", "properties": { "id": 8.000000, "osm_id": 670929929.000000, "name": "Sancakl??", "type": "village", "z_order": 5.000000, "population": null }, "geometry": { "type": "Point", "coordinates": [ 27.15316288397625, 38.51864933528492 ] } },
{ "type": "Feature", "properties": { "id": 9.000000, "osm_id": 965825479.000000, "name": "Karaba??lar", "type": "town", "z_order": 6.000000, "population": 500000.000000 }, "geometry": { "type": "Point", "coordinates": [ 27.104592185837646, 38.369770893126315 ] } },
{ "type": "Feature", "properties": { "id": 10.000000, "osm_id": 981969300.000000, "name": "Yamanlar", "type": "village", "z_order": 5.000000, "population": null }, "geometry": { "type": "Point", "coordinates": [ 27.133238764856657, 38.542293929766117 ] } },
{ "type": "Feature", "properties": { "id": 11.000000, "osm_id": 986738354.000000, "name": "??i??ekli", "type": "village", "z_order": 5.000000, "population": null }, "geometry": { "type": "Point", "coordinates": [ 27.283822421396906, 38.49898463606857 ] } },
{ "type": "Feature", "properties": { "id": 12.000000, "osm_id": 986738356.000000, "name": "E??ridere", "type": "village", "z_order": 5.000000, "population": null }, "geometry": { "type": "Point", "coordinates": [ 27.216120280721867, 38.501702384353564 ] } },
{ "type": "Feature", "properties": { "id": 13.000000, "osm_id": 986738369.000000, "name": "Laka", "type": "village", "z_order": 5.000000, "population": null }, "geometry": { "type": "Point", "coordinates": [ 27.186367541941024, 38.487898647112246 ] } },
{ "type": "Feature", "properties": { "id": 14.000000, "osm_id": 986738374.000000, "name": "Kara??am", "type": "village", "z_order": 5.000000, "population": null }, "geometry": { "type": "Point", "coordinates": [ 27.270867435670933, 38.516821996574059 ] } },
{ "type": "Feature", "properties": { "id": 15.000000, "osm_id": 986738420.000000, "name": "G??kdere", "type": "village", "z_order": 5.000000, "population": null }, "geometry": { "type": "Point", "coordinates": [ 27.240438193484977, 38.378788982750706 ] } },
{ "type": "Feature", "properties": { "id": 16.000000, "osm_id": 986738425.000000, "name": "Be??yol", "type": "village", "z_order": 5.000000, "population": null }, "geometry": { "type": "Point", "coordinates": [ 27.292979566794941, 38.53337969192205 ] } },
{ "type": "Feature", "properties": { "id": 17.000000, "osm_id": 986738429.000000, "name": "Belenba????", "type": "village", "z_order": 5.000000, "population": null }, "geometry": { "type": "Point", "coordinates": [ 27.279400296920613, 38.310882742733384 ] } },
{ "type": "Feature", "properties": { "id": 18.000000, "osm_id": 986738448.000000, "name": "Kaynaklar", "type": "village", "z_order": 5.000000, "population": null }, "geometry": { "type": "Point", "coordinates": [ 27.275231138282123, 38.364167171759647 ] } },
{ "type": "Feature", "properties": { "id": 19.000000, "osm_id": 986738489.000000, "name": "Kayadibi", "type": "village", "z_order": 5.000000, "population": null }, "geometry": { "type": "Point", "coordinates": [ 27.239161881088762, 38.517916589309493 ] } },
{ "type": "Feature", "properties": { "id": 20.000000, "osm_id": 986738500.000000, "name": "??ami??i", "type": "village", "z_order": 5.000000, "population": null }, "geometry": { "type": "Point", "coordinates": [ 27.220498567844544, 38.515402437452593 ] } },
{ "type": "Feature", "properties": { "id": 21.000000, "osm_id": 1528455672.000000, "name": "Ye??il??am", "type": "village", "z_order": 5.000000, "population": null }, "geometry": { "type": "Point", "coordinates": [ 27.296948984680824, 38.44723493351335 ] } },
{ "type": "Feature", "properties": { "id": 22.000000, "osm_id": 1858889935.000000, "name": "Ulukent", "type": "village", "z_order": 5.000000, "population": null }, "geometry": { "type": "Point", "coordinates": [ 27.038199968990565, 38.542995997975936 ] } },
{ "type": "Feature", "properties": { "id": 23.000000, "osm_id": 1858889931.000000, "name": "Harmandal??", "type": "village", "z_order": 5.000000, "population": null }, "geometry": { "type": "Point", "coordinates": [ 27.0521739426853, 38.533019940637843 ] } },
{ "type": "Feature", "properties": { "id": 24.000000, "osm_id": 1860689376.000000, "name": "Alt??nda??", "type": "suburb", "z_order": 3.000000, "population": null }, "geometry": { "type": "Point", "coordinates": [ 27.201461086442663, 38.416522550638177 ] } },
{ "type": "Feature", "properties": { "id": 25.000000, "osm_id": 1947932929.000000, "name": "Nar-Bel", "type": "suburb", "z_order": 3.000000, "population": null }, "geometry": { "type": "Point", "coordinates": [ 27.015722973621422, 38.386830832112452 ] } },
{ "type": "Feature", "properties": { "id": 26.000000, "osm_id": 2405271353.000000, "name": "Kavac??k", "type": "village", "z_order": 5.000000, "population": null }, "geometry": { "type": "Point", "coordinates": [ 26.959115622901038, 38.309806925461061 ] } },
{ "type": "Feature", "properties": { "id": 27.000000, "osm_id": 2405271354.000000, "name": "K??????kkaya", "type": "village", "z_order": 5.000000, "population": null }, "geometry": { "type": "Point", "coordinates": [ 26.896906646289779, 38.331458973919837 ] } },
{ "type": "Feature", "properties": { "id": 28.000000, "osm_id": 2476241412.000000, "name": "Adalet Mahallesi", "type": "suburb", "z_order": 3.000000, "population": null }, "geometry": { "type": "Point", "coordinates": [ 27.180104080975582, 38.458481938829628 ] } },
{ "type": "Feature", "properties": { "id": 29.000000, "osm_id": 2405271355.000000, "name": "Payaml??", "type": "village", "z_order": 5.000000, "population": null }, "geometry": { "type": "Point", "coordinates": [ 26.924729954779107, 38.3167116858383 ] } },
{ "type": "Feature", "properties": { "id": 30.000000, "osm_id": 2405271929.000000, "name": "??aml??", "type": "village", "z_order": 5.000000, "population": null }, "geometry": { "type": "Point", "coordinates": [ 26.859782694220087, 38.314177920327978 ] } },
{ "type": "Feature", "properties": { "id": 31.000000, "osm_id": 2406938261.000000, "name": "I????kkent", "type": "village", "z_order": 5.000000, "population": null }, "geometry": { "type": "Point", "coordinates": [ 27.230871675935955, 38.425197149870513 ] } },
{ "type": "Feature", "properties": { "id": 32.000000, "osm_id": 3138220822.000000, "name": "S??zbeyli", "type": "village", "z_order": 5.000000, "population": null }, "geometry": { "type": "Point", "coordinates": [ 26.911284627717489, 38.536940994942427 ] } },
{ "type": "Feature", "properties": { "id": 33.000000, "osm_id": 3138228252.000000, "name": "??i??li", "type": "town", "z_order": 6.000000, "population": 185000.000000 }, "geometry": { "type": "Point", "coordinates": [ 27.067441746953932, 38.49036259136912 ] } },
{ "type": "Feature", "properties": { "id": 34.000000, "osm_id": 3138220819.000000, "name": "Kakl????", "type": "village", "z_order": 5.000000, "population": null }, "geometry": { "type": "Point", "coordinates": [ 26.987162644386046, 38.509582965898261 ] } },
{ "type": "Feature", "properties": { "id": 35.000000, "osm_id": 3138220820.000000, "name": "Sasal??", "type": "suburb", "z_order": 3.000000, "population": null }, "geometry": { "type": "Point", "coordinates": [ 26.952544629908147, 38.494655969812669 ] } },
{ "type": "Feature", "properties": { "id": 36.000000, "osm_id": 3750582057.000000, "name": "Yukar??", "type": "suburb", "z_order": 3.000000, "population": null }, "geometry": { "type": "Point", "coordinates": [ 27.206537083185509, 38.511523460301959 ] } },
{ "type": "Feature", "properties": { "id": 37.000000, "osm_id": 3571502793.000000, "name": "Evka 6", "type": "suburb", "z_order": 3.000000, "population": null }, "geometry": { "type": "Point", "coordinates": [ 27.089259589457498, 38.503159745858341 ] } },
{ "type": "Feature", "properties": { "id": 38.000000, "osm_id": 3804980140.000000, "name": "Kar????yaka", "type": "town", "z_order": 6.000000, "population": 345000.000000 }, "geometry": { "type": "Point", "coordinates": [ 27.114533877372708, 38.458571541374567 ] } },
{ "type": "Feature", "properties": { "id": 39.000000, "osm_id": 3933638335.000000, "name": "Bayrakl??", "type": "town", "z_order": 6.000000, "population": 330000.000000 }, "geometry": { "type": "Point", "coordinates": [ 27.142652899406016, 38.478453750978275 ] } },
{ "type": "Feature", "properties": { "id": 40.000000, "osm_id": 3933738725.000000, "name": "Konak", "type": "town", "z_order": 6.000000, "population": 385000.000000 }, "geometry": { "type": "Point", "coordinates": [ 27.129453329745445, 38.410957972759348 ] } },
{ "type": "Feature", "properties": { "id": 41.000000, "osm_id": 4170566889.000000, "name": "????kuyular", "type": "suburb", "z_order": 3.000000, "population": null }, "geometry": { "type": "Point", "coordinates": [ 27.17632987761462, 38.3821858328308 ] } },
{ "type": "Feature", "properties": { "id": 42.000000, "osm_id": 4170561296.000000, "name": "Y??k??kkemer", "type": "suburb", "z_order": 3.000000, "population": null }, "geometry": { "type": "Point", "coordinates": [ 27.164671739947664, 38.403284340404014 ] } },
{ "type": "Feature", "properties": { "id": 43.000000, "osm_id": 4170541308.000000, "name": "Dokuz??e??meler", "type": "suburb", "z_order": 3.000000, "population": null }, "geometry": { "type": "Point", "coordinates": [ 27.179278463512986, 38.385469191941915 ] } },
{ "type": "Feature", "properties": { "id": 44.000000, "osm_id": 4170538817.000000, "name": "Heykel", "type": "suburb", "z_order": 3.000000, "population": null }, "geometry": { "type": "Point", "coordinates": [ 27.173220945908525, 38.388120471734737 ] } },
{ "type": "Feature", "properties": { "id": 45.000000, "osm_id": 4172262805.000000, "name": "Dumlup??nar", "type": "suburb", "z_order": 3.000000, "population": null }, "geometry": { "type": "Point", "coordinates": [ 27.174193749590842, 38.384644747945771 ] } },
{ "type": "Feature", "properties": { "id": 46.000000, "osm_id": 4172265243.000000, "name": "??irinyer", "type": "suburb", "z_order": 3.000000, "population": null }, "geometry": { "type": "Point", "coordinates": [ 27.151737038427399, 38.391443141971735 ] } },
{ "type": "Feature", "properties": { "id": 47.000000, "osm_id": 4172254911.000000, "name": "Yan??kkahveler", "type": "suburb", "z_order": 3.000000, "population": null }, "geometry": { "type": "Point", "coordinates": [ 27.173515234528935, 38.385023274693083 ] } },
{ "type": "Feature", "properties": { "id": 48.000000, "osm_id": 4909372670.000000, "name": "Hilal", "type": "suburb", "z_order": 3.000000, "population": null }, "geometry": { "type": "Point", "coordinates": [ 27.157696655402788, 38.424437581804938 ] } }
]
}
