{
"type": "FeatureCollection",
"crs": { "type": "name", "properties": { "name": "urn:ogc:def:crs:OGC:1.3:CRS84" } },
                                                                                
"features": [
{ "type": "Feature", "properties": { "id": 1.000000, "osm_id": 26608883.000000, "name": "Adnan Menderes Havaliman??", "type": "aerodrome", "ref": null }, "geometry": { "type": "Point", "coordinates": [ 27.156899955506162, 38.292499971788374 ] } },
{ "type": "Feature", "properties": { "id": 2.000000, "osm_id": 26835722.000000, "name": "??niversite", "type": "motorway_junction", "ref": "K10" }, "geometry": { "type": "Point", "coordinates": [ 27.203469474262079, 38.456326280971467 ] } },
{ "type": "Feature", "properties": { "id": 3.000000, "osm_id": 26835801.000000, "name": "Otogar", "type": "motorway_junction", "ref": "K8" }, "geometry": { "type": "Point", "coordinates": [ 27.212829964631084, 38.444081661539485 ] } },
{ "type": "Feature", "properties": { "id": 4.000000, "osm_id": 26835884.000000, "name": null, "type": "motorway_junction", "ref": null }, "geometry": { "type": "Point", "coordinates": [ 27.234879985852555, 38.428248246444724 ] } },
{ "type": "Feature", "properties": { "id": 5.000000, "osm_id": 26836431.000000, "name": null, "type": "motorway_junction", "ref": "K6" }, "geometry": { "type": "Point", "coordinates": [ 27.232803034065196, 38.357151937898578 ] } },
{ "type": "Feature", "properties": { "id": 6.000000, "osm_id": 268032405.000000, "name": "B??lge", "type": "station", "ref": null }, "geometry": { "type": "Point", "coordinates": [ 27.201418757831643, 38.45490596747873 ] } },
{ "type": "Feature", "properties": { "id": 7.000000, "osm_id": 33083336.000000, "name": "Otogar", "type": "motorway_junction", "ref": "K8" }, "geometry": { "type": "Point", "coordinates": [ 27.214698793762665, 38.43698244100861 ] } },
{ "type": "Feature", "properties": { "id": 8.000000, "osm_id": 130234974.000000, "name": null, "type": "motorway_junction", "ref": "K6" }, "geometry": { "type": "Point", "coordinates": [ 27.223379260327217, 38.36696706269575 ] } },
{ "type": "Feature", "properties": { "id": 9.000000, "osm_id": 130237642.000000, "name": "Gaziemir", "type": "motorway_junction", "ref": "K4" }, "geometry": { "type": "Point", "coordinates": [ 27.132911619175811, 38.345974921473783 ] } },
{ "type": "Feature", "properties": { "id": 10.000000, "osm_id": 130237710.000000, "name": null, "type": "motorway_junction", "ref": null }, "geometry": { "type": "Point", "coordinates": [ 27.137554774438769, 38.346383036339311 ] } },
{ "type": "Feature", "properties": { "id": 11.000000, "osm_id": 130238481.000000, "name": "Gaziemir", "type": "motorway_junction", "ref": "K4" }, "geometry": { "type": "Point", "coordinates": [ 27.132334273685217, 38.345793872365249 ] } },
{ "type": "Feature", "properties": { "id": 12.000000, "osm_id": 254396984.000000, "name": "??zmir Kakl???? Havaalan??", "type": "aerodrome", "ref": null }, "geometry": { "type": "Point", "coordinates": [ 26.976556435567403, 38.517844337304126 ] } },
{ "type": "Feature", "properties": { "id": 13.000000, "osm_id": 254396985.000000, "name": "??i??li Havaalan??", "type": "aerodrome", "ref": null }, "geometry": { "type": "Point", "coordinates": [ 27.01269115542453, 38.511800146925708 ] } },
{ "type": "Feature", "properties": { "id": 14.000000, "osm_id": 255733748.000000, "name": "Bal??ova (Marina)", "type": "motorway_junction", "ref": "K1" }, "geometry": { "type": "Point", "coordinates": [ 27.056672761575641, 38.396282936683178 ] } },
{ "type": "Feature", "properties": { "id": 15.000000, "osm_id": 255734352.000000, "name": "Narl??dere 1", "type": "motorway_junction", "ref": "K1" }, "geometry": { "type": "Point", "coordinates": [ 27.004946779806403, 38.397731497189625 ] } },
{ "type": "Feature", "properties": { "id": 16.000000, "osm_id": 255734667.000000, "name": "Bal??ova (Marina)", "type": "motorway_junction", "ref": "K1" }, "geometry": { "type": "Point", "coordinates": [ 27.06265878154602, 38.398188478550622 ] } },
{ "type": "Feature", "properties": { "id": 17.000000, "osm_id": 256993605.000000, "name": "Otogar", "type": "motorway_junction", "ref": "K8" }, "geometry": { "type": "Point", "coordinates": [ 27.227691498052906, 38.439636235372376 ] } },
{ "type": "Feature", "properties": { "id": 18.000000, "osm_id": 256993611.000000, "name": "P??narba????", "type": "motorway_junction", "ref": "K7" }, "geometry": { "type": "Point", "coordinates": [ 27.234980987785804, 38.428531470952947 ] } },
{ "type": "Feature", "properties": { "id": 19.000000, "osm_id": 256993618.000000, "name": null, "type": "motorway_junction", "ref": null }, "geometry": { "type": "Point", "coordinates": [ 27.238119926705252, 38.420099946912643 ] } },
{ "type": "Feature", "properties": { "id": 20.000000, "osm_id": 256993913.000000, "name": "??niversite", "type": "motorway_junction", "ref": "K10" }, "geometry": { "type": "Point", "coordinates": [ 27.20573728198471, 38.452678225253266 ] } },
{ "type": "Feature", "properties": { "id": 21.000000, "osm_id": 268834241.000000, "name": "Atakent", "type": "motorway_junction", "ref": "K17" }, "geometry": { "type": "Point", "coordinates": [ 27.041981045512131, 38.478429694916173 ] } },
{ "type": "Feature", "properties": { "id": 22.000000, "osm_id": 268840112.000000, "name": "Sasall??", "type": "motorway_junction", "ref": "K19" }, "geometry": { "type": "Point", "coordinates": [ 27.023041967653512, 38.491165829150248 ] } },
{ "type": "Feature", "properties": { "id": 23.000000, "osm_id": 269876653.000000, "name": "Mustafa Kemal Lisesi", "type": "bus_stop", "ref": null }, "geometry": { "type": "Point", "coordinates": [ 27.195758793894697, 38.460176927289382 ] } },
{ "type": "Feature", "properties": { "id": 24.000000, "osm_id": 276563286.000000, "name": "Hukumet Konagi? Bornova Merkez?", "type": "bus_stop", "ref": null }, "geometry": { "type": "Point", "coordinates": [ 27.219029723132422, 38.465589625082714 ] } },
{ "type": "Feature", "properties": { "id": 25.000000, "osm_id": 276564251.000000, "name": "Stadyum", "type": "station", "ref": null }, "geometry": { "type": "Point", "coordinates": [ 27.180702716500235, 38.442376698614964 ] } },
{ "type": "Feature", "properties": { "id": 26.000000, "osm_id": 282969067.000000, "name": "Buca", "type": "motorway_junction", "ref": "K5" }, "geometry": { "type": "Point", "coordinates": [ 27.204878472185527, 38.363530985308785 ] } },
{ "type": "Feature", "properties": { "id": 27.000000, "osm_id": 282969070.000000, "name": "Buca", "type": "motorway_junction", "ref": "K5" }, "geometry": { "type": "Point", "coordinates": [ 27.206188647470583, 38.363500139905113 ] } },
{ "type": "Feature", "properties": { "id": 28.000000, "osm_id": 268093004.000000, "name": "Otogar", "type": "motorway_junction", "ref": "K8" }, "geometry": { "type": "Point", "coordinates": [ 27.228102043670333, 38.444849695327264 ] } },
{ "type": "Feature", "properties": { "id": 29.000000, "osm_id": 268208158.000000, "name": "Limontepe", "type": "motorway_junction", "ref": "K2" }, "geometry": { "type": "Point", "coordinates": [ 27.081152445070018, 38.362603024808436 ] } },
{ "type": "Feature", "properties": { "id": 30.000000, "osm_id": 268208586.000000, "name": "Uzundere", "type": "motorway_junction", "ref": "K3" }, "geometry": { "type": "Point", "coordinates": [ 27.101713421192695, 38.3551053286007 ] } },
{ "type": "Feature", "properties": { "id": 31.000000, "osm_id": 268578082.000000, "name": "Seferihisar 1", "type": "motorway_junction", "ref": "K2" }, "geometry": { "type": "Point", "coordinates": [ 26.87434256294668, 38.369910787090269 ] } },
{ "type": "Feature", "properties": { "id": 32.000000, "osm_id": 268587674.000000, "name": "Limontepe", "type": "motorway_junction", "ref": "K2" }, "geometry": { "type": "Point", "coordinates": [ 27.083152618624297, 38.360146037531194 ] } },
{ "type": "Feature", "properties": { "id": 33.000000, "osm_id": 268753708.000000, "name": "??zban ??i??li ??stasyonu", "type": "station", "ref": null }, "geometry": { "type": "Point", "coordinates": [ 27.063273677962822, 38.491683327852172 ] } },
{ "type": "Feature", "properties": { "id": 34.000000, "osm_id": 268753721.000000, "name": "??zban ??emikler", "type": "station", "ref": null }, "geometry": { "type": "Point", "coordinates": [ 27.090076992654986, 38.474746267566559 ] } },
{ "type": "Feature", "properties": { "id": 35.000000, "osm_id": 268753970.000000, "name": "??zban Halkap??nar ??stasyonu", "type": "station", "ref": null }, "geometry": { "type": "Point", "coordinates": [ 27.168793121738073, 38.435164322391245 ] } },
{ "type": "Feature", "properties": { "id": 36.000000, "osm_id": 268755533.000000, "name": null, "type": "level_crossing", "ref": null }, "geometry": { "type": "Point", "coordinates": [ 27.166749529925337, 38.436515652820873 ] } },
{ "type": "Feature", "properties": { "id": 37.000000, "osm_id": 268766086.000000, "name": "K??rfez Kent", "type": "motorway_junction", "ref": "K15" }, "geometry": { "type": "Point", "coordinates": [ 27.086219137900343, 38.483406282287369 ] } },
{ "type": "Feature", "properties": { "id": 38.000000, "osm_id": 268789792.000000, "name": null, "type": "turning_circle", "ref": null }, "geometry": { "type": "Point", "coordinates": [ 27.033456985260784, 38.533455045231591 ] } },
{ "type": "Feature", "properties": { "id": 39.000000, "osm_id": 268789831.000000, "name": null, "type": "turning_circle", "ref": null }, "geometry": { "type": "Point", "coordinates": [ 27.034950472768259, 38.535999623397004 ] } },
{ "type": "Feature", "properties": { "id": 40.000000, "osm_id": 268789863.000000, "name": null, "type": "turning_circle", "ref": null }, "geometry": { "type": "Point", "coordinates": [ 27.036117736604183, 38.535402161338794 ] } },
{ "type": "Feature", "properties": { "id": 41.000000, "osm_id": 358338979.000000, "name": "Otogar Son Durak", "type": "bus_stop", "ref": null }, "geometry": { "type": "Point", "coordinates": [ 27.212957788654474, 38.430483616202054 ] } },
{ "type": "Feature", "properties": { "id": 42.000000, "osm_id": 358342714.000000, "name": "Basmane Gar", "type": "bus_stop", "ref": null }, "geometry": { "type": "Point", "coordinates": [ 27.144722894213743, 38.422166086044911 ] } },
{ "type": "Feature", "properties": { "id": 43.000000, "osm_id": 358342715.000000, "name": "Esref Pasa Hastanesi", "type": "bus_stop", "ref": null }, "geometry": { "type": "Point", "coordinates": [ 27.159737732644572, 38.423464359027463 ] } },
{ "type": "Feature", "properties": { "id": 44.000000, "osm_id": 358351631.000000, "name": "Camdibi Saglik Ocagi", "type": "bus_stop", "ref": null }, "geometry": { "type": "Point", "coordinates": [ 27.18090832458509, 38.435353334307791 ] } },
{ "type": "Feature", "properties": { "id": 45.000000, "osm_id": 358351632.000000, "name": "Birlik Cami", "type": "bus_stop", "ref": null }, "geometry": { "type": "Point", "coordinates": [ 27.194886153955306, 38.440665030167878 ] } },
{ "type": "Feature", "properties": { "id": 46.000000, "osm_id": 358351633.000000, "name": "Kose", "type": "bus_stop", "ref": null }, "geometry": { "type": "Point", "coordinates": [ 27.200120484849094, 38.442184333937121 ] } },
{ "type": "Feature", "properties": { "id": 47.000000, "osm_id": 358351634.000000, "name": "Sevgi", "type": "bus_stop", "ref": null }, "geometry": { "type": "Point", "coordinates": [ 27.202347221246157, 38.436310296193113 ] } },
{ "type": "Feature", "properties": { "id": 48.000000, "osm_id": 358351635.000000, "name": "Depo", "type": "bus_stop", "ref": null }, "geometry": { "type": "Point", "coordinates": [ 27.206934553033985, 38.428775719611423 ] } },
{ "type": "Feature", "properties": { "id": 49.000000, "osm_id": 358351655.000000, "name": "Mersinli Cami", "type": "bus_stop", "ref": null }, "geometry": { "type": "Point", "coordinates": [ 27.181618942336144, 38.43994644960884 ] } },
{ "type": "Feature", "properties": { "id": 50.000000, "osm_id": 358351656.000000, "name": "??zsu", "type": "bus_stop", "ref": null }, "geometry": { "type": "Point", "coordinates": [ 27.173558988063519, 38.425535778758729 ] } },
{ "type": "Feature", "properties": { "id": 51.000000, "osm_id": 358351657.000000, "name": "Halkap??nar Metro", "type": "bus_stop", "ref": null }, "geometry": { "type": "Point", "coordinates": [ 27.168911558029919, 38.433371098026299 ] } },
{ "type": "Feature", "properties": { "id": 52.000000, "osm_id": 358351659.000000, "name": "Alsancak Gar", "type": "bus_stop", "ref": null }, "geometry": { "type": "Point", "coordinates": [ 27.147651279725466, 38.438469977364804 ] } },
{ "type": "Feature", "properties": { "id": 53.000000, "osm_id": 358351660.000000, "name": "Mezarl??k Ba????", "type": "bus_stop", "ref": null }, "geometry": { "type": "Point", "coordinates": [ 27.136917833616621, 38.420572770070663 ] } },
{ "type": "Feature", "properties": { "id": 54.000000, "osm_id": 358351661.000000, "name": "Koruluk", "type": "bus_stop", "ref": null }, "geometry": { "type": "Point", "coordinates": [ 27.131705882404304, 38.412927468548048 ] } },
{ "type": "Feature", "properties": { "id": 55.000000, "osm_id": 358351662.000000, "name": "Esref Pasa", "type": "bus_stop", "ref": null }, "geometry": { "type": "Point", "coordinates": [ 27.128714632618767, 38.408494950511823 ] } },
{ "type": "Feature", "properties": { "id": 56.000000, "osm_id": 358351663.000000, "name": "Konak Anadolu", "type": "bus_stop", "ref": null }, "geometry": { "type": "Point", "coordinates": [ 27.132294794921275, 38.397376355952161 ] } },
{ "type": "Feature", "properties": { "id": 57.000000, "osm_id": 358351665.000000, "name": "??irinyer Karakol", "type": "bus_stop", "ref": null }, "geometry": { "type": "Point", "coordinates": [ 27.148242036261138, 38.393266122092967 ] } },
{ "type": "Feature", "properties": { "id": 58.000000, "osm_id": 358351666.000000, "name": "Nato", "type": "bus_stop", "ref": null }, "geometry": { "type": "Point", "coordinates": [ 27.144229619211984, 38.393294788201814 ] } },
{ "type": "Feature", "properties": { "id": 59.000000, "osm_id": 358351668.000000, "name": "Heykel", "type": "bus_stop", "ref": null }, "geometry": { "type": "Point", "coordinates": [ 27.172516782222914, 38.38834016141692 ] } },
{ "type": "Feature", "properties": { "id": 60.000000, "osm_id": 358351670.000000, "name": "Dokuz Eylul Egitim Fakultesi", "type": "bus_stop", "ref": null }, "geometry": { "type": "Point", "coordinates": [ 27.169442216319851, 38.384653046029904 ] } },
{ "type": "Feature", "properties": { "id": 61.000000, "osm_id": 358351673.000000, "name": "Adatepe Son Durak", "type": "bus_stop", "ref": null }, "geometry": { "type": "Point", "coordinates": [ 27.186312891932317, 38.385345894146241 ] } },
{ "type": "Feature", "properties": { "id": 62.000000, "osm_id": 358351676.000000, "name": "Hukuk Fakultesi", "type": "bus_stop", "ref": null }, "geometry": { "type": "Point", "coordinates": [ 27.179910291374195, 38.384812469828262 ] } },
{ "type": "Feature", "properties": { "id": 63.000000, "osm_id": 358351679.000000, "name": "Adatepe", "type": "bus_stop", "ref": null }, "geometry": { "type": "Point", "coordinates": [ 27.185403958352197, 38.385637416738604 ] } },
{ "type": "Feature", "properties": { "id": 64.000000, "osm_id": 358352553.000000, "name": "??irinyer PTT", "type": "bus_stop", "ref": null }, "geometry": { "type": "Point", "coordinates": [ 27.150473885619135, 38.392593474363281 ] } },
{ "type": "Feature", "properties": { "id": 65.000000, "osm_id": 358353902.000000, "name": "??cyol", "type": "bus_stop", "ref": null }, "geometry": { "type": "Point", "coordinates": [ 27.120885264502448, 38.406007620745072 ] } },
{ "type": "Feature", "properties": { "id": 66.000000, "osm_id": 358357292.000000, "name": "K??z Yurdu", "type": "bus_stop", "ref": null }, "geometry": { "type": "Point", "coordinates": [ 27.127192562821477, 38.412992679754723 ] } },
{ "type": "Feature", "properties": { "id": 67.000000, "osm_id": 358603087.000000, "name": "Havalimani Dis Hatlar Gidis", "type": "bus_stop", "ref": null }, "geometry": { "type": "Point", "coordinates": [ 27.147260431580492, 38.295013536912052 ] } },
{ "type": "Feature", "properties": { "id": 68.000000, "osm_id": 358603090.000000, "name": "Havalimani Ic Hatlar Gidis", "type": "bus_stop", "ref": null }, "geometry": { "type": "Point", "coordinates": [ 27.148772526912978, 38.291189461227191 ] } },
{ "type": "Feature", "properties": { "id": 69.000000, "osm_id": 358606059.000000, "name": "Serbest Bolge", "type": "bus_stop", "ref": null }, "geometry": { "type": "Point", "coordinates": [ 27.132835427675957, 38.340688958056461 ] } },
{ "type": "Feature", "properties": { "id": 70.000000, "osm_id": 358606063.000000, "name": "Bornova Metro", "type": "bus_stop", "ref": null }, "geometry": { "type": "Point", "coordinates": [ 27.214243069687111, 38.45852083086038 ] } },
{ "type": "Feature", "properties": { "id": 71.000000, "osm_id": 358618634.000000, "name": "Ege Universitesi Hastanesi", "type": "bus_stop", "ref": null }, "geometry": { "type": "Point", "coordinates": [ 27.207536457500879, 38.457139241760274 ] } },
{ "type": "Feature", "properties": { "id": 72.000000, "osm_id": 358618636.000000, "name": "Ardic", "type": "bus_stop", "ref": null }, "geometry": { "type": "Point", "coordinates": [ 27.213908045017263, 38.480075397785242 ] } },
{ "type": "Feature", "properties": { "id": 73.000000, "osm_id": 358618637.000000, "name": "Evka 4 Son Durak", "type": "bus_stop", "ref": null }, "geometry": { "type": "Point", "coordinates": [ 27.214165537082749, 38.495048829614397 ] } },
{ "type": "Feature", "properties": { "id": 74.000000, "osm_id": 358621093.000000, "name": "Liman", "type": "bus_stop", "ref": null }, "geometry": { "type": "Point", "coordinates": [ 27.14993878492055, 38.440236379639593 ] } },
{ "type": "Feature", "properties": { "id": 75.000000, "osm_id": 358633062.000000, "name": "Hukumet Konagi", "type": "bus_stop", "ref": null }, "geometry": { "type": "Point", "coordinates": [ 27.220089363331621, 38.466103351928211 ] } },
{ "type": "Feature", "properties": { "id": 76.000000, "osm_id": 358633066.000000, "name": "Bornova Stadi", "type": "bus_stop", "ref": null }, "geometry": { "type": "Point", "coordinates": [ 27.208797431014318, 38.462753524324938 ] } },
{ "type": "Feature", "properties": { "id": 77.000000, "osm_id": 358633068.000000, "name": "Bornova Migros", "type": "bus_stop", "ref": null }, "geometry": { "type": "Point", "coordinates": [ 27.200681066533349, 38.460926353252113 ] } },
{ "type": "Feature", "properties": { "id": 78.000000, "osm_id": 358633071.000000, "name": "Manavkuyu", "type": "bus_stop", "ref": null }, "geometry": { "type": "Point", "coordinates": [ 27.179142257586417, 38.455604096194037 ] } },
{ "type": "Feature", "properties": { "id": 79.000000, "osm_id": 358640537.000000, "name": "M??rsel Pa??a", "type": "bus_stop", "ref": null }, "geometry": { "type": "Point", "coordinates": [ 27.144097017503778, 38.42402603035913 ] } },
{ "type": "Feature", "properties": { "id": 80.000000, "osm_id": 358640539.000000, "name": "Yesildere", "type": "bus_stop", "ref": null }, "geometry": { "type": "Point", "coordinates": [ 27.144800762094206, 38.407508819603464 ] } },
{ "type": "Feature", "properties": { "id": 81.000000, "osm_id": 358640545.000000, "name": "Ko??u Yolu", "type": "bus_stop", "ref": null }, "geometry": { "type": "Point", "coordinates": [ 27.1514441747305, 38.389307097767016 ] } },
{ "type": "Feature", "properties": { "id": 82.000000, "osm_id": 358640548.000000, "name": "Buca Devlet Hastanesi", "type": "bus_stop", "ref": null }, "geometry": { "type": "Point", "coordinates": [ 27.165688464802624, 38.385766498047474 ] } },
{ "type": "Feature", "properties": { "id": 83.000000, "osm_id": 358640551.000000, "name": "Cevik Bir", "type": "bus_stop", "ref": null }, "geometry": { "type": "Point", "coordinates": [ 27.16894734875649, 38.384143677774063 ] } },
{ "type": "Feature", "properties": { "id": 84.000000, "osm_id": 358640552.000000, "name": "Buca Uckuyular Meydan", "type": "bus_stop", "ref": null }, "geometry": { "type": "Point", "coordinates": [ 27.176276652529452, 38.382370486157697 ] } },
{ "type": "Feature", "properties": { "id": 85.000000, "osm_id": 358703823.000000, "name": "Gaziemir", "type": "motorway_junction", "ref": "K4" }, "geometry": { "type": "Point", "coordinates": [ 27.132586149875578, 38.346458892563021 ] } },
{ "type": "Feature", "properties": { "id": 86.000000, "osm_id": 358703841.000000, "name": "Uzundere", "type": "motorway_junction", "ref": "K3" }, "geometry": { "type": "Point", "coordinates": [ 27.111761143802909, 38.35341553692092 ] } },
{ "type": "Feature", "properties": { "id": 87.000000, "osm_id": 361129797.000000, "name": "Cakil", "type": "bus_stop", "ref": null }, "geometry": { "type": "Point", "coordinates": [ 27.165944196668448, 38.391800462504023 ] } },
{ "type": "Feature", "properties": { "id": 88.000000, "osm_id": 361129798.000000, "name": "Evka 1 Itfaiye", "type": "bus_stop", "ref": null }, "geometry": { "type": "Point", "coordinates": [ 27.168202616659499, 38.396957763707661 ] } },
{ "type": "Feature", "properties": { "id": 89.000000, "osm_id": 361129799.000000, "name": "Buca Endustri Meslek Lisesi", "type": "bus_stop", "ref": null }, "geometry": { "type": "Point", "coordinates": [ 27.174318891405221, 38.397635943493441 ] } },
{ "type": "Feature", "properties": { "id": 90.000000, "osm_id": 361129800.000000, "name": "Eyup Sultan Cami", "type": "bus_stop", "ref": null }, "geometry": { "type": "Point", "coordinates": [ 27.180208268032032, 38.393030842070878 ] } },
{ "type": "Feature", "properties": { "id": 91.000000, "osm_id": 361129802.000000, "name": "Betontas", "type": "bus_stop", "ref": null }, "geometry": { "type": "Point", "coordinates": [ 27.186510285752064, 38.390759597767946 ] } },
{ "type": "Feature", "properties": { "id": 92.000000, "osm_id": 361129843.000000, "name": "Dortyol", "type": "bus_stop", "ref": null }, "geometry": { "type": "Point", "coordinates": [ 27.195121433977391, 38.39861377631766 ] } },
{ "type": "Feature", "properties": { "id": 93.000000, "osm_id": 361129848.000000, "name": "Evka 1 Son Durak", "type": "bus_stop", "ref": null }, "geometry": { "type": "Point", "coordinates": [ 27.200381748771008, 38.401807532883851 ] } },
{ "type": "Feature", "properties": { "id": 94.000000, "osm_id": 282969185.000000, "name": "Buca", "type": "motorway_junction", "ref": "K5" }, "geometry": { "type": "Point", "coordinates": [ 27.198860852440191, 38.363485136298429 ] } },
{ "type": "Feature", "properties": { "id": 95.000000, "osm_id": 282969189.000000, "name": "Gaziemir", "type": "motorway_junction", "ref": "K4" }, "geometry": { "type": "Point", "coordinates": [ 27.131872598458415, 38.346221936160333 ] } },
{ "type": "Feature", "properties": { "id": 96.000000, "osm_id": 282970249.000000, "name": "??niversite", "type": "motorway_junction", "ref": "K10" }, "geometry": { "type": "Point", "coordinates": [ 27.210107438661311, 38.45843525162897 ] } },
{ "type": "Feature", "properties": { "id": 97.000000, "osm_id": 290112469.000000, "name": "Sanayi", "type": "motorway_junction", "ref": "K9" }, "geometry": { "type": "Point", "coordinates": [ 27.206646383202894, 38.447297462511017 ] } },
{ "type": "Feature", "properties": { "id": 98.000000, "osm_id": 316412079.000000, "name": "Bornova", "type": "motorway_junction", "ref": "K11" }, "geometry": { "type": "Point", "coordinates": [ 27.202667745223522, 38.465600940651996 ] } },
{ "type": "Feature", "properties": { "id": 99.000000, "osm_id": 332760918.000000, "name": "Bornova Metro Dura????", "type": "halt", "ref": null }, "geometry": { "type": "Point", "coordinates": [ 27.21322491990864, 38.458421924402927 ] } },
{ "type": "Feature", "properties": { "id": 100.000000, "osm_id": 332767438.000000, "name": "Sanayi", "type": "station", "ref": null }, "geometry": { "type": "Point", "coordinates": [ 27.19046025762259, 38.448301782149287 ] } },
{ "type": "Feature", "properties": { "id": 101.000000, "osm_id": 332770386.000000, "name": "Halkap??nar", "type": "station", "ref": null }, "geometry": { "type": "Point", "coordinates": [ 27.168873336551453, 38.434768948018551 ] } },
{ "type": "Feature", "properties": { "id": 102.000000, "osm_id": 332770971.000000, "name": "Hilal", "type": "station", "ref": null }, "geometry": { "type": "Point", "coordinates": [ 27.155126093337543, 38.426945782510579 ] } },
{ "type": "Feature", "properties": { "id": 103.000000, "osm_id": 332772151.000000, "name": "Basmane", "type": "station", "ref": null }, "geometry": { "type": "Point", "coordinates": [ 27.143688735000183, 38.422864885312492 ] } },
{ "type": "Feature", "properties": { "id": 104.000000, "osm_id": 332773294.000000, "name": "Konak", "type": "station", "ref": null }, "geometry": { "type": "Point", "coordinates": [ 27.128791243213783, 38.41772158188715 ] } },
{ "type": "Feature", "properties": { "id": 105.000000, "osm_id": 332775838.000000, "name": "??ankaya", "type": "station", "ref": null }, "geometry": { "type": "Point", "coordinates": [ 27.13700986691347, 38.422535644155829 ] } },
{ "type": "Feature", "properties": { "id": 106.000000, "osm_id": 332776504.000000, "name": "??cyol", "type": "station", "ref": null }, "geometry": { "type": "Point", "coordinates": [ 27.12115767635558, 38.405914246343713 ] } },
{ "type": "Feature", "properties": { "id": 107.000000, "osm_id": 357299075.000000, "name": "Narl??dere 1", "type": "motorway_junction", "ref": "K1" }, "geometry": { "type": "Point", "coordinates": [ 26.996836869390876, 38.39728239481758 ] } },
{ "type": "Feature", "properties": { "id": 108.000000, "osm_id": 357816002.000000, "name": "Buca", "type": "motorway_junction", "ref": "K5" }, "geometry": { "type": "Point", "coordinates": [ 27.205814395493888, 38.363243066934785 ] } },
{ "type": "Feature", "properties": { "id": 109.000000, "osm_id": 433896761.000000, "name": null, "type": "level_crossing", "ref": null }, "geometry": { "type": "Point", "coordinates": [ 27.101119730990916, 38.452878636558154 ] } },
{ "type": "Feature", "properties": { "id": 110.000000, "osm_id": 435233326.000000, "name": "Onur", "type": "motorway_junction", "ref": "K13" }, "geometry": { "type": "Point", "coordinates": [ 27.114443939551677, 38.487133127895419 ] } },
{ "type": "Feature", "properties": { "id": 111.000000, "osm_id": 435233622.000000, "name": "Onur", "type": "motorway_junction", "ref": "K13" }, "geometry": { "type": "Point", "coordinates": [ 27.114604369178409, 38.486442459073913 ] } },
{ "type": "Feature", "properties": { "id": 112.000000, "osm_id": 435233650.000000, "name": "Onur", "type": "motorway_junction", "ref": "K13" }, "geometry": { "type": "Point", "coordinates": [ 27.113706332072411, 38.486773376611211 ] } },
{ "type": "Feature", "properties": { "id": 113.000000, "osm_id": 435233842.000000, "name": "Onur", "type": "motorway_junction", "ref": "K13" }, "geometry": { "type": "Point", "coordinates": [ 27.114208491891532, 38.487017122355496 ] } },
{ "type": "Feature", "properties": { "id": 114.000000, "osm_id": 369632716.000000, "name": "Betonyol", "type": "bus_stop", "ref": null }, "geometry": { "type": "Point", "coordinates": [ 27.156181542585159, 38.394873938759702 ] } },
{ "type": "Feature", "properties": { "id": 115.000000, "osm_id": 369632763.000000, "name": "Istiklal", "type": "bus_stop", "ref": null }, "geometry": { "type": "Point", "coordinates": [ 27.163794741418627, 38.398284367522933 ] } },
{ "type": "Feature", "properties": { "id": 116.000000, "osm_id": 369632870.000000, "name": "Iscievleri Son Durak", "type": "bus_stop", "ref": null }, "geometry": { "type": "Point", "coordinates": [ 27.16051607617328, 38.394113783960904 ] } },
{ "type": "Feature", "properties": { "id": 117.000000, "osm_id": 392013133.000000, "name": "K??rfez Kent", "type": "motorway_junction", "ref": "K15" }, "geometry": { "type": "Point", "coordinates": [ 27.08551245964378, 38.487647776750265 ] } },
{ "type": "Feature", "properties": { "id": 118.000000, "osm_id": 392013161.000000, "name": "??niversite", "type": "motorway_junction", "ref": "K10" }, "geometry": { "type": "Point", "coordinates": [ 27.206307167581457, 38.460368286138845 ] } },
{ "type": "Feature", "properties": { "id": 119.000000, "osm_id": 418816777.000000, "name": "B??y??k ??i??li", "type": "motorway_junction", "ref": null }, "geometry": { "type": "Point", "coordinates": [ 27.081741860501182, 38.485277290713746 ] } },
{ "type": "Feature", "properties": { "id": 120.000000, "osm_id": 432797285.000000, "name": null, "type": "turning_circle", "ref": null }, "geometry": { "type": "Point", "coordinates": [ 27.084876021735823, 38.494813381954259 ] } },
{ "type": "Feature", "properties": { "id": 121.000000, "osm_id": 433863698.000000, "name": "Bayrakl??", "type": "motorway_junction", "ref": "K12" }, "geometry": { "type": "Point", "coordinates": [ 27.184033181907211, 38.480606391351301 ] } },
{ "type": "Feature", "properties": { "id": 122.000000, "osm_id": 458239369.000000, "name": "Do??an??ay Son Durak", "type": "bus_stop", "ref": null }, "geometry": { "type": "Point", "coordinates": [ 27.152909834319445, 38.518427131031785 ] } },
{ "type": "Feature", "properties": { "id": 123.000000, "osm_id": 458241782.000000, "name": "Atakent", "type": "motorway_junction", "ref": "K17" }, "geometry": { "type": "Point", "coordinates": [ 27.030373031626169, 38.485103533860979 ] } },
{ "type": "Feature", "properties": { "id": 124.000000, "osm_id": 465505709.000000, "name": "Kar????yaka", "type": "motorway_junction", "ref": "K14" }, "geometry": { "type": "Point", "coordinates": [ 27.090998750546959, 38.489671335814414 ] } },
{ "type": "Feature", "properties": { "id": 125.000000, "osm_id": 435509644.000000, "name": "Ya??ar ??niversitesi", "type": "bus_stop", "ref": null }, "geometry": { "type": "Point", "coordinates": [ 27.157879045615854, 38.439592649475884 ] } },
{ "type": "Feature", "properties": { "id": 126.000000, "osm_id": 437378870.000000, "name": "Bornova", "type": "motorway_junction", "ref": "K11" }, "geometry": { "type": "Point", "coordinates": [ 27.204250248542678, 38.464863584629825 ] } },
{ "type": "Feature", "properties": { "id": 127.000000, "osm_id": 437378872.000000, "name": "Sanayi", "type": "motorway_junction", "ref": "K9" }, "geometry": { "type": "Point", "coordinates": [ 27.207899645365387, 38.447976480487114 ] } },
{ "type": "Feature", "properties": { "id": 128.000000, "osm_id": 441674622.000000, "name": null, "type": "bus_stop", "ref": null }, "geometry": { "type": "Point", "coordinates": [ 27.168509059039536, 38.428849983273551 ] } },
{ "type": "Feature", "properties": { "id": 129.000000, "osm_id": 441674623.000000, "name": null, "type": "bus_stop", "ref": null }, "geometry": { "type": "Point", "coordinates": [ 27.168725479779482, 38.428869596926972 ] } },
{ "type": "Feature", "properties": { "id": 130.000000, "osm_id": 446049646.000000, "name": "??i??li", "type": "motorway_junction", "ref": "K16" }, "geometry": { "type": "Point", "coordinates": [ 27.071464054648825, 38.482892387803815 ] } },
{ "type": "Feature", "properties": { "id": 131.000000, "osm_id": 446050995.000000, "name": "Kar????yaka", "type": "motorway_junction", "ref": "K14" }, "geometry": { "type": "Point", "coordinates": [ 27.094966324414145, 38.490442890001532 ] } },
{ "type": "Feature", "properties": { "id": 132.000000, "osm_id": 448280272.000000, "name": "K??rfez Kent", "type": "motorway_junction", "ref": "K15" }, "geometry": { "type": "Point", "coordinates": [ 27.074229747419963, 38.487662445080815 ] } },
{ "type": "Feature", "properties": { "id": 133.000000, "osm_id": 448281833.000000, "name": "K??rfez Kent", "type": "motorway_junction", "ref": "K15" }, "geometry": { "type": "Point", "coordinates": [ 27.077126868432856, 38.483221545141419 ] } },
{ "type": "Feature", "properties": { "id": 134.000000, "osm_id": 455354860.000000, "name": null, "type": "bus_stop", "ref": null }, "geometry": { "type": "Point", "coordinates": [ 27.167962642771641, 38.465074976227868 ] } },
{ "type": "Feature", "properties": { "id": 135.000000, "osm_id": 455385922.000000, "name": "Bayrakl??", "type": "motorway_junction", "ref": "K12" }, "geometry": { "type": "Point", "coordinates": [ 27.18207047546008, 38.481759322132802 ] } },
{ "type": "Feature", "properties": { "id": 136.000000, "osm_id": 457114833.000000, "name": null, "type": "turning_circle", "ref": null }, "geometry": { "type": "Point", "coordinates": [ 27.033786058779384, 38.482997580688611 ] } },
{ "type": "Feature", "properties": { "id": 137.000000, "osm_id": 457512261.000000, "name": null, "type": "helipad", "ref": null }, "geometry": { "type": "Point", "coordinates": [ 27.271222157813241, 38.442016444416566 ] } },
{ "type": "Feature", "properties": { "id": 138.000000, "osm_id": 577318966.000000, "name": "A????k Veysel Rekreasyon Alan??", "type": "bus_stop", "ref": null }, "geometry": { "type": "Point", "coordinates": [ 27.206525767616228, 38.465501531280346 ] } },
{ "type": "Feature", "properties": { "id": 139.000000, "osm_id": 577319969.000000, "name": "Bornova", "type": "motorway_junction", "ref": "K11" }, "geometry": { "type": "Point", "coordinates": [ 27.205146190172911, 38.467293665997886 ] } },
{ "type": "Feature", "properties": { "id": 140.000000, "osm_id": 577320484.000000, "name": "Bornova", "type": "motorway_junction", "ref": "K11" }, "geometry": { "type": "Point", "coordinates": [ 27.200096847882151, 38.469970091500208 ] } },
{ "type": "Feature", "properties": { "id": 141.000000, "osm_id": 580800648.000000, "name": "Narl??dere Sahilevleri", "type": "bus_stop", "ref": null }, "geometry": { "type": "Point", "coordinates": [ 27.016722934670042, 38.411790966296735 ] } },
{ "type": "Feature", "properties": { "id": 142.000000, "osm_id": 590521315.000000, "name": "??zban Demirk??pr??", "type": "station", "ref": null }, "geometry": { "type": "Point", "coordinates": [ 27.09635176918971, 38.467948963188007 ] } },
{ "type": "Feature", "properties": { "id": 143.000000, "osm_id": 491834095.000000, "name": "??ZYUVA", "type": "turning_circle", "ref": null }, "geometry": { "type": "Point", "coordinates": [ 27.24198146949729, 38.476772760296825 ] } },
{ "type": "Feature", "properties": { "id": 144.000000, "osm_id": 496241489.000000, "name": "Sanayi", "type": "motorway_junction", "ref": "K9" }, "geometry": { "type": "Point", "coordinates": [ 27.209856065385139, 38.445763071316094 ] } },
{ "type": "Feature", "properties": { "id": 145.000000, "osm_id": 506198082.000000, "name": "Seferihisar 1", "type": "motorway_junction", "ref": "K2" }, "geometry": { "type": "Point", "coordinates": [ 26.866273220942503, 38.365166043160855 ] } },
{ "type": "Feature", "properties": { "id": 146.000000, "osm_id": 525762625.000000, "name": null, "type": "turning_circle", "ref": null }, "geometry": { "type": "Point", "coordinates": [ 26.986101327806239, 38.395026070302293 ] } },
{ "type": "Feature", "properties": { "id": 147.000000, "osm_id": 528875072.000000, "name": "??i??li", "type": "motorway_junction", "ref": "K16" }, "geometry": { "type": "Point", "coordinates": [ 27.054992357627409, 38.479694272647947 ] } },
{ "type": "Feature", "properties": { "id": 148.000000, "osm_id": 534660058.000000, "name": "Liman", "type": "bus_stop", "ref": null }, "geometry": { "type": "Point", "coordinates": [ 27.149225568779514, 38.438967946232339 ] } },
{ "type": "Feature", "properties": { "id": 149.000000, "osm_id": 534672062.000000, "name": "Evka 3", "type": "station", "ref": null }, "geometry": { "type": "Point", "coordinates": [ 27.227895178300002, 38.465392650358126 ] } },
{ "type": "Feature", "properties": { "id": 150.000000, "osm_id": 539531209.000000, "name": "Kar????yaka-Bornova Minib??s Dura????", "type": "bus_stop", "ref": null }, "geometry": { "type": "Point", "coordinates": [ 27.211035231523564, 38.459689268162741 ] } },
{ "type": "Feature", "properties": { "id": 151.000000, "osm_id": 671805015.000000, "name": "??ehit Murat Aslant??rk", "type": "bus_stop", "ref": null }, "geometry": { "type": "Point", "coordinates": [ 27.18736767062768, 38.457841561427188 ] } },
{ "type": "Feature", "properties": { "id": 152.000000, "osm_id": 671805021.000000, "name": "??amk??ran", "type": "bus_stop", "ref": null }, "geometry": { "type": "Point", "coordinates": [ 27.191776384058894, 38.458986194124542 ] } },
{ "type": "Feature", "properties": { "id": 153.000000, "osm_id": 671805024.000000, "name": "??amk??ran", "type": "bus_stop", "ref": null }, "geometry": { "type": "Point", "coordinates": [ 27.191529369372375, 38.459167075595047 ] } },
{ "type": "Feature", "properties": { "id": 154.000000, "osm_id": 673254182.000000, "name": null, "type": "bus_stop", "ref": null }, "geometry": { "type": "Point", "coordinates": [ 27.158020196865294, 38.440100760446256 ] } },
{ "type": "Feature", "properties": { "id": 155.000000, "osm_id": 676195781.000000, "name": null, "type": "bus_stop", "ref": null }, "geometry": { "type": "Point", "coordinates": [ 27.18002721892347, 38.443294433193415 ] } },
{ "type": "Feature", "properties": { "id": 156.000000, "osm_id": 676195785.000000, "name": null, "type": "bus_stop", "ref": null }, "geometry": { "type": "Point", "coordinates": [ 27.180671787277529, 38.442541319193282 ] } },
{ "type": "Feature", "properties": { "id": 157.000000, "osm_id": 676195787.000000, "name": null, "type": "bus_stop", "ref": null }, "geometry": { "type": "Point", "coordinates": [ 27.180734819189382, 38.444253574373562 ] } },
{ "type": "Feature", "properties": { "id": 158.000000, "osm_id": 676195789.000000, "name": null, "type": "bus_stop", "ref": null }, "geometry": { "type": "Point", "coordinates": [ 27.180958867461211, 38.446497326034084 ] } },
{ "type": "Feature", "properties": { "id": 159.000000, "osm_id": 676195792.000000, "name": null, "type": "bus_stop", "ref": null }, "geometry": { "type": "Point", "coordinates": [ 27.176187385260675, 38.456133497198493 ] } },
{ "type": "Feature", "properties": { "id": 160.000000, "osm_id": 676195798.000000, "name": null, "type": "bus_stop", "ref": null }, "geometry": { "type": "Point", "coordinates": [ 27.175211983188348, 38.457614998584404 ] } },
{ "type": "Feature", "properties": { "id": 161.000000, "osm_id": 676195801.000000, "name": null, "type": "bus_stop", "ref": null }, "geometry": { "type": "Point", "coordinates": [ 27.174374295785213, 38.45905852994894 ] } },
{ "type": "Feature", "properties": { "id": 162.000000, "osm_id": 676195813.000000, "name": "Bornova Migros", "type": "bus_stop", "ref": null }, "geometry": { "type": "Point", "coordinates": [ 27.200718617459557, 38.460686882278452 ] } },
{ "type": "Feature", "properties": { "id": 163.000000, "osm_id": 676195821.000000, "name": null, "type": "bus_stop", "ref": null }, "geometry": { "type": "Point", "coordinates": [ 27.205819592273855, 38.461856660685349 ] } },
{ "type": "Feature", "properties": { "id": 164.000000, "osm_id": 676195823.000000, "name": null, "type": "bus_stop", "ref": null }, "geometry": { "type": "Point", "coordinates": [ 27.205385828784639, 38.461477379566759 ] } },
{ "type": "Feature", "properties": { "id": 165.000000, "osm_id": 676195831.000000, "name": null, "type": "bus_stop", "ref": null }, "geometry": { "type": "Point", "coordinates": [ 27.211916421004219, 38.463457436553426 ] } },
{ "type": "Feature", "properties": { "id": 166.000000, "osm_id": 676195833.000000, "name": null, "type": "bus_stop", "ref": null }, "geometry": { "type": "Point", "coordinates": [ 27.213855574303409, 38.463982059873075 ] } },
{ "type": "Feature", "properties": { "id": 167.000000, "osm_id": 685223677.000000, "name": null, "type": "bus_stop", "ref": null }, "geometry": { "type": "Point", "coordinates": [ 27.129761448506116, 38.421438453030419 ] } },
{ "type": "Feature", "properties": { "id": 168.000000, "osm_id": 685223691.000000, "name": null, "type": "subway_entrance", "ref": null }, "geometry": { "type": "Point", "coordinates": [ 27.135197280352202, 38.422569339406571 ] } },
{ "type": "Feature", "properties": { "id": 169.000000, "osm_id": 685223693.000000, "name": null, "type": "subway_entrance", "ref": null }, "geometry": { "type": "Point", "coordinates": [ 27.135181438555207, 38.42238904466933 ] } },
{ "type": "Feature", "properties": { "id": 170.000000, "osm_id": 685223695.000000, "name": null, "type": "subway_entrance", "ref": null }, "geometry": { "type": "Point", "coordinates": [ 27.137445139145257, 38.422422069367826 ] } },
{ "type": "Feature", "properties": { "id": 171.000000, "osm_id": 685223699.000000, "name": null, "type": "subway_entrance", "ref": null }, "geometry": { "type": "Point", "coordinates": [ 27.137410521885158, 38.422634550613282 ] } },
{ "type": "Feature", "properties": { "id": 172.000000, "osm_id": 685223702.000000, "name": "??ankaya", "type": "bus_stop", "ref": null }, "geometry": { "type": "Point", "coordinates": [ 27.137652339791714, 38.423668374550715 ] } },
{ "type": "Feature", "properties": { "id": 173.000000, "osm_id": 685223704.000000, "name": "AP??KAM", "type": "bus_stop", "ref": null }, "geometry": { "type": "Point", "coordinates": [ 27.139463082334284, 38.426234997121469 ] } },
{ "type": "Feature", "properties": { "id": 174.000000, "osm_id": 685223706.000000, "name": "Lozan", "type": "bus_stop", "ref": null }, "geometry": { "type": "Point", "coordinates": [ 27.142646864435704, 38.431171770452607 ] } },
{ "type": "Feature", "properties": { "id": 175.000000, "osm_id": 685223723.000000, "name": null, "type": "bus_stop", "ref": null }, "geometry": { "type": "Point", "coordinates": [ 27.143163441128308, 38.434774396255619 ] } },
{ "type": "Feature", "properties": { "id": 176.000000, "osm_id": 685223725.000000, "name": null, "type": "bus_stop", "ref": null }, "geometry": { "type": "Point", "coordinates": [ 27.142457684881094, 38.434380949720634 ] } },
{ "type": "Feature", "properties": { "id": 177.000000, "osm_id": 685223727.000000, "name": "Hacazade Camii", "type": "bus_stop", "ref": null }, "geometry": { "type": "Point", "coordinates": [ 27.144383678592305, 38.433746523469438 ] } },
{ "type": "Feature", "properties": { "id": 178.000000, "osm_id": 685223729.000000, "name": null, "type": "bus_stop", "ref": null }, "geometry": { "type": "Point", "coordinates": [ 27.146227781109502, 38.43609798258575 ] } },
{ "type": "Feature", "properties": { "id": 179.000000, "osm_id": 685223731.000000, "name": null, "type": "bus_stop", "ref": null }, "geometry": { "type": "Point", "coordinates": [ 27.146535061679856, 38.435763460830088 ] } },
{ "type": "Feature", "properties": { "id": 180.000000, "osm_id": 663657266.000000, "name": "??zban Mavi??ehir ??stasyonu", "type": "station", "ref": null }, "geometry": { "type": "Point", "coordinates": [ 27.083137195922461, 38.482052269648733 ] } },
{ "type": "Feature", "properties": { "id": 181.000000, "osm_id": 665148430.000000, "name": "??zban Alsancak ??stasyonu", "type": "station", "ref": null }, "geometry": { "type": "Point", "coordinates": [ 27.14887285829397, 38.438630071715437 ] } },
{ "type": "Feature", "properties": { "id": 182.000000, "osm_id": 666959397.000000, "name": null, "type": "turning_circle", "ref": null }, "geometry": { "type": "Point", "coordinates": [ 27.080032874263111, 38.496157923042347 ] } },
{ "type": "Feature", "properties": { "id": 183.000000, "osm_id": 667947291.000000, "name": "Konak", "type": "bus_stop", "ref": null }, "geometry": { "type": "Point", "coordinates": [ 27.126966586711916, 38.416674849818861 ] } },
{ "type": "Feature", "properties": { "id": 184.000000, "osm_id": 671804828.000000, "name": null, "type": "bus_stop", "ref": null }, "geometry": { "type": "Point", "coordinates": [ 27.148162575819043, 38.439666494042825 ] } },
{ "type": "Feature", "properties": { "id": 185.000000, "osm_id": 671804831.000000, "name": null, "type": "bus_stop", "ref": null }, "geometry": { "type": "Point", "coordinates": [ 27.147978425406336, 38.439617040814106 ] } },
{ "type": "Feature", "properties": { "id": 186.000000, "osm_id": 671804833.000000, "name": null, "type": "bus_stop", "ref": null }, "geometry": { "type": "Point", "coordinates": [ 27.148500534155001, 38.439763221205446 ] } },
{ "type": "Feature", "properties": { "id": 187.000000, "osm_id": 671804842.000000, "name": null, "type": "bus_stop", "ref": null }, "geometry": { "type": "Point", "coordinates": [ 27.148644367613457, 38.439796832637164 ] } },
{ "type": "Feature", "properties": { "id": 188.000000, "osm_id": 671804844.000000, "name": null, "type": "bus_stop", "ref": null }, "geometry": { "type": "Point", "coordinates": [ 27.14927912914078, 38.438765271813615 ] } },
{ "type": "Feature", "properties": { "id": 189.000000, "osm_id": 671804846.000000, "name": null, "type": "bus_stop", "ref": null }, "geometry": { "type": "Point", "coordinates": [ 27.149159184106363, 38.439190653399663 ] } },
{ "type": "Feature", "properties": { "id": 190.000000, "osm_id": 671804991.000000, "name": null, "type": "bus_stop", "ref": null }, "geometry": { "type": "Point", "coordinates": [ 27.17827338950346, 38.453027582977541 ] } },
{ "type": "Feature", "properties": { "id": 191.000000, "osm_id": 671804998.000000, "name": "Manavkuyu", "type": "bus_stop", "ref": null }, "geometry": { "type": "Point", "coordinates": [ 27.178733639806723, 38.45532347007579 ] } },
{ "type": "Feature", "properties": { "id": 192.000000, "osm_id": 671805011.000000, "name": null, "type": "bus_stop", "ref": null }, "geometry": { "type": "Point", "coordinates": [ 27.182744631932334, 38.456051354547384 ] } },
{ "type": "Feature", "properties": { "id": 193.000000, "osm_id": 798797051.000000, "name": "Diyaret Suren Ilk??gretim  Okulu", "type": "bus_stop", "ref": null }, "geometry": { "type": "Point", "coordinates": [ 27.160150625194913, 38.401107224873726 ] } },
{ "type": "Feature", "properties": { "id": 194.000000, "osm_id": 798797052.000000, "name": "Telsizler", "type": "bus_stop", "ref": null }, "geometry": { "type": "Point", "coordinates": [ 27.171614470346299, 38.401956479303266 ] } },
{ "type": "Feature", "properties": { "id": 195.000000, "osm_id": 798797053.000000, "name": "Istikli Parki", "type": "bus_stop", "ref": null }, "geometry": { "type": "Point", "coordinates": [ 27.165343465668002, 38.397634686207965 ] } },
{ "type": "Feature", "properties": { "id": 196.000000, "osm_id": 798799460.000000, "name": "Yeni Mahalle", "type": "bus_stop", "ref": null }, "geometry": { "type": "Point", "coordinates": [ 27.157194830859794, 38.391113649358005 ] } },
{ "type": "Feature", "properties": { "id": 197.000000, "osm_id": 798799461.000000, "name": null, "type": "bus_stop", "ref": null }, "geometry": { "type": "Point", "coordinates": [ 27.163355864968452, 38.390501854245372 ] } },
{ "type": "Feature", "properties": { "id": 198.000000, "osm_id": 798803521.000000, "name": "Mevlana Heykeli", "type": "bus_stop", "ref": null }, "geometry": { "type": "Point", "coordinates": [ 27.178373553246384, 38.394536064242772 ] } },
{ "type": "Feature", "properties": { "id": 199.000000, "osm_id": 799930131.000000, "name": "Mehmet Akif Cami", "type": "bus_stop", "ref": null }, "geometry": { "type": "Point", "coordinates": [ 27.213682739459955, 38.492118264807857 ] } },
{ "type": "Feature", "properties": { "id": 200.000000, "osm_id": 799952375.000000, "name": null, "type": "bus_stop", "ref": null }, "geometry": { "type": "Point", "coordinates": [ 27.218430249417448, 38.474389198491366 ] } },
{ "type": "Feature", "properties": { "id": 201.000000, "osm_id": 799952379.000000, "name": null, "type": "bus_stop", "ref": null }, "geometry": { "type": "Point", "coordinates": [ 27.218955962384481, 38.472726061263671 ] } },
{ "type": "Feature", "properties": { "id": 202.000000, "osm_id": 913399817.000000, "name": "??zban Kemer ??stasyonu", "type": "station", "ref": null }, "geometry": { "type": "Point", "coordinates": [ 27.156272737691665, 38.421733244565047 ] } },
{ "type": "Feature", "properties": { "id": 203.000000, "osm_id": 913399928.000000, "name": "??zban Havaalan?? ??stasyonu", "type": "station", "ref": null }, "geometry": { "type": "Point", "coordinates": [ 27.148083869748262, 38.290977063800796 ] } },
{ "type": "Feature", "properties": { "id": 204.000000, "osm_id": 913399942.000000, "name": "??zban Sarn???? ??stasyonu", "type": "station", "ref": null }, "geometry": { "type": "Point", "coordinates": [ 27.144725157327599, 38.311867281080133 ] } },
{ "type": "Feature", "properties": { "id": 205.000000, "osm_id": 913399945.000000, "name": "??zban Gaziemir ??stasyonu", "type": "station", "ref": null }, "geometry": { "type": "Point", "coordinates": [ 27.139978653198483, 38.326353975792017 ] } },
{ "type": "Feature", "properties": { "id": 206.000000, "osm_id": 913399946.000000, "name": "??zban Esba?? ??stasyonu", "type": "station", "ref": null }, "geometry": { "type": "Point", "coordinates": [ 27.136478621890319, 38.336940990052419 ] } },
{ "type": "Feature", "properties": { "id": 207.000000, "osm_id": 913399950.000000, "name": "??zban Semt Garaj?? ??stasyonu", "type": "station", "ref": null }, "geometry": { "type": "Point", "coordinates": [ 27.136645757039613, 38.357003159117248 ] } },
{ "type": "Feature", "properties": { "id": 208.000000, "osm_id": 702560286.000000, "name": "Lozan", "type": "bus_stop", "ref": null }, "geometry": { "type": "Point", "coordinates": [ 27.142686762294829, 38.430986362754396 ] } },
{ "type": "Feature", "properties": { "id": 209.000000, "osm_id": 702560288.000000, "name": "Beh??et Uz ??ocuk Hastahanesi", "type": "bus_stop", "ref": null }, "geometry": { "type": "Point", "coordinates": [ 27.138890430709466, 38.42721978692532 ] } },
{ "type": "Feature", "properties": { "id": 210.000000, "osm_id": 702560289.000000, "name": "Tekel", "type": "bus_stop", "ref": null }, "geometry": { "type": "Point", "coordinates": [ 27.146694988392397, 38.435653574079481 ] } },
{ "type": "Feature", "properties": { "id": 211.000000, "osm_id": 702560291.000000, "name": "Halit Ziya", "type": "bus_stop", "ref": null }, "geometry": { "type": "Point", "coordinates": [ 27.135618470986657, 38.425425137636836 ] } },
{ "type": "Feature", "properties": { "id": 212.000000, "osm_id": 702560292.000000, "name": "Tekel", "type": "bus_stop", "ref": null }, "geometry": { "type": "Point", "coordinates": [ 27.146539755545632, 38.435514266848742 ] } },
{ "type": "Feature", "properties": { "id": 213.000000, "osm_id": 702560293.000000, "name": "Hacazade Camii", "type": "bus_stop", "ref": null }, "geometry": { "type": "Point", "coordinates": [ 27.144659946120896, 38.433675193473448 ] } },
{ "type": "Feature", "properties": { "id": 214.000000, "osm_id": 702560295.000000, "name": "Lozan", "type": "bus_stop", "ref": null }, "geometry": { "type": "Point", "coordinates": [ 27.142625742039712, 38.430894329457544 ] } },
{ "type": "Feature", "properties": { "id": 215.000000, "osm_id": 702560296.000000, "name": "Liman", "type": "bus_stop", "ref": null }, "geometry": { "type": "Point", "coordinates": [ 27.154798947656673, 38.440590766505778 ] } },
{ "type": "Feature", "properties": { "id": 216.000000, "osm_id": 737939394.000000, "name": null, "type": "turning_circle", "ref": null }, "geometry": { "type": "Point", "coordinates": [ 27.034836981799288, 38.533742879786558 ] } },
{ "type": "Feature", "properties": { "id": 217.000000, "osm_id": 738753118.000000, "name": "??zban Atasanayi ??stasyonu", "type": "station", "ref": null }, "geometry": { "type": "Point", "coordinates": [ 27.05310684850852, 38.499033167287934 ] } },
{ "type": "Feature", "properties": { "id": 218.000000, "osm_id": 798720705.000000, "name": "??imenta?? Lisesi", "type": "bus_stop", "ref": null }, "geometry": { "type": "Point", "coordinates": [ 27.203174263632292, 38.43185145898093 ] } },
{ "type": "Feature", "properties": { "id": 219.000000, "osm_id": 798720731.000000, "name": "Yesilova", "type": "bus_stop", "ref": null }, "geometry": { "type": "Point", "coordinates": [ 27.202122837698226, 38.438809947357527 ] } },
{ "type": "Feature", "properties": { "id": 220.000000, "osm_id": 798795598.000000, "name": "Manolya", "type": "bus_stop", "ref": null }, "geometry": { "type": "Point", "coordinates": [ 27.158428647006925, 38.399282652190891 ] } },
{ "type": "Feature", "properties": { "id": 221.000000, "osm_id": 1005677286.000000, "name": "Defne", "type": "bus_stop", "ref": null }, "geometry": { "type": "Point", "coordinates": [ 27.114982644468622, 38.395968363857065 ] } },
{ "type": "Feature", "properties": { "id": 222.000000, "osm_id": 1005678262.000000, "name": "Cumhuriyet Ticaret Meslek Lisesi", "type": "bus_stop", "ref": null }, "geometry": { "type": "Point", "coordinates": [ 27.112268248944929, 38.399474681592608 ] } },
{ "type": "Feature", "properties": { "id": 223.000000, "osm_id": 1005678610.000000, "name": "Ye??ilyurt ??tfaiye", "type": "bus_stop", "ref": null }, "geometry": { "type": "Point", "coordinates": [ 27.115386987477702, 38.40161684458667 ] } },
{ "type": "Feature", "properties": { "id": 224.000000, "osm_id": 1077207645.000000, "name": null, "type": "subway_entrance", "ref": null }, "geometry": { "type": "Point", "coordinates": [ 27.096404658998722, 38.468102771111234 ] } },
{ "type": "Feature", "properties": { "id": 225.000000, "osm_id": 1077207724.000000, "name": null, "type": "subway_entrance", "ref": null }, "geometry": { "type": "Point", "coordinates": [ 27.096603561561039, 38.467637575485092 ] } },
{ "type": "Feature", "properties": { "id": 226.000000, "osm_id": 1113181655.000000, "name": null, "type": "subway_entrance", "ref": null }, "geometry": { "type": "Point", "coordinates": [ 27.090362647915125, 38.474729252303121 ] } },
{ "type": "Feature", "properties": { "id": 227.000000, "osm_id": 1113181734.000000, "name": null, "type": "subway_entrance", "ref": null }, "geometry": { "type": "Point", "coordinates": [ 27.090119321265998, 38.474588017234652 ] } },
{ "type": "Feature", "properties": { "id": 228.000000, "osm_id": 1153417964.000000, "name": null, "type": "subway_entrance", "ref": null }, "geometry": { "type": "Point", "coordinates": [ 27.189724494162022, 38.448021156031018 ] } },
{ "type": "Feature", "properties": { "id": 229.000000, "osm_id": 1153418056.000000, "name": null, "type": "subway_entrance", "ref": null }, "geometry": { "type": "Point", "coordinates": [ 27.19018616938882, 38.447891739446021 ] } },
{ "type": "Feature", "properties": { "id": 230.000000, "osm_id": 1005676746.000000, "name": "??zsu", "type": "bus_stop", "ref": null }, "geometry": { "type": "Point", "coordinates": [ 27.113024631887299, 38.397179129770478 ] } },
{ "type": "Feature", "properties": { "id": 231.000000, "osm_id": 1432556515.000000, "name": null, "type": "bus_stop", "ref": null }, "geometry": { "type": "Point", "coordinates": [ 27.075784087544463, 38.390123830412222 ] } },
{ "type": "Feature", "properties": { "id": 232.000000, "osm_id": 1432556523.000000, "name": null, "type": "bus_stop", "ref": null }, "geometry": { "type": "Point", "coordinates": [ 27.073595824082958, 38.390308483739148 ] } },
{ "type": "Feature", "properties": { "id": 233.000000, "osm_id": 1432593020.000000, "name": null, "type": "bus_stop", "ref": null }, "geometry": { "type": "Point", "coordinates": [ 27.072400145595253, 38.392325756375925 ] } },
{ "type": "Feature", "properties": { "id": 234.000000, "osm_id": 1432593023.000000, "name": null, "type": "bus_stop", "ref": null }, "geometry": { "type": "Point", "coordinates": [ 27.072180120636943, 38.393080546756693 ] } },
{ "type": "Feature", "properties": { "id": 235.000000, "osm_id": 1432593026.000000, "name": null, "type": "bus_stop", "ref": null }, "geometry": { "type": "Point", "coordinates": [ 27.069980793063252, 38.394959853267238 ] } },
{ "type": "Feature", "properties": { "id": 236.000000, "osm_id": 1432593028.000000, "name": null, "type": "bus_stop", "ref": null }, "geometry": { "type": "Point", "coordinates": [ 27.069616096456173, 38.396120243942562 ] } },
{ "type": "Feature", "properties": { "id": 237.000000, "osm_id": 1432689411.000000, "name": "Fahrettin Altay Aktarma Merkezi", "type": "bus_stop", "ref": null }, "geometry": { "type": "Point", "coordinates": [ 27.069011593599299, 38.39752932568507 ] } },
{ "type": "Feature", "properties": { "id": 238.000000, "osm_id": 1432689412.000000, "name": null, "type": "bus_stop", "ref": null }, "geometry": { "type": "Point", "coordinates": [ 27.071269929771347, 38.397520859962867 ] } },
{ "type": "Feature", "properties": { "id": 239.000000, "osm_id": 1432689417.000000, "name": null, "type": "bus_stop", "ref": null }, "geometry": { "type": "Point", "coordinates": [ 27.070325876016909, 38.396587535044489 ] } },
{ "type": "Feature", "properties": { "id": 240.000000, "osm_id": 1499102032.000000, "name": "G??ztepe", "type": "station", "ref": null }, "geometry": { "type": "Point", "coordinates": [ 27.094386380533564, 38.397279880246629 ] } },
{ "type": "Feature", "properties": { "id": 241.000000, "osm_id": 1703229899.000000, "name": "Dokuz Eyl??l ??niversitesi T??naz Tepe Kamp??s?? Son Dura????", "type": "bus_stop", "ref": null }, "geometry": { "type": "Point", "coordinates": [ 27.19375275300817, 38.376039969966882 ] } },
{ "type": "Feature", "properties": { "id": 242.000000, "osm_id": 1703229907.000000, "name": "T??naztepe Son Durak", "type": "bus_stop", "ref": null }, "geometry": { "type": "Point", "coordinates": [ 27.195185052622463, 38.371384241849142 ] } },
{ "type": "Feature", "properties": { "id": 243.000000, "osm_id": 1746662057.000000, "name": null, "type": "bus_stop", "ref": null }, "geometry": { "type": "Point", "coordinates": [ 27.118157290295585, 38.471313459121859 ] } },
{ "type": "Feature", "properties": { "id": 244.000000, "osm_id": 1746662228.000000, "name": "So??ukkkuyu", "type": "bus_stop", "ref": null }, "geometry": { "type": "Point", "coordinates": [ 27.116642428935052, 38.468130766667826 ] } },
{ "type": "Feature", "properties": { "id": 245.000000, "osm_id": 1746662260.000000, "name": "So??ukkuyu Trafik", "type": "bus_stop", "ref": null }, "geometry": { "type": "Point", "coordinates": [ 27.117333684489779, 38.467565155841669 ] } },
{ "type": "Feature", "properties": { "id": 246.000000, "osm_id": 1746700531.000000, "name": null, "type": "bus_stop", "ref": null }, "geometry": { "type": "Point", "coordinates": [ 27.115434848144844, 38.465660284526479 ] } },
{ "type": "Feature", "properties": { "id": 247.000000, "osm_id": 1746701437.000000, "name": null, "type": "bus_stop", "ref": null }, "geometry": { "type": "Point", "coordinates": [ 27.114766642823835, 38.474061717534369 ] } },
{ "type": "Feature", "properties": { "id": 248.000000, "osm_id": 1746701439.000000, "name": null, "type": "bus_stop", "ref": null }, "geometry": { "type": "Point", "coordinates": [ 27.115223372727769, 38.473960547963088 ] } },
{ "type": "Feature", "properties": { "id": 249.000000, "osm_id": 1748098635.000000, "name": null, "type": "bus_stop", "ref": null }, "geometry": { "type": "Point", "coordinates": [ 27.091766951972829, 38.492592848165543 ] } },
{ "type": "Feature", "properties": { "id": 250.000000, "osm_id": 1748098636.000000, "name": null, "type": "bus_stop", "ref": null }, "geometry": { "type": "Point", "coordinates": [ 27.097936870898845, 38.49481438778264 ] } },
{ "type": "Feature", "properties": { "id": 251.000000, "osm_id": 1748100718.000000, "name": null, "type": "bus_stop", "ref": null }, "geometry": { "type": "Point", "coordinates": [ 27.097759593646714, 38.495036843492869 ] } },
{ "type": "Feature", "properties": { "id": 252.000000, "osm_id": 1748456657.000000, "name": null, "type": "bus_stop", "ref": null }, "geometry": { "type": "Point", "coordinates": [ 27.119339557738215, 38.473001239144871 ] } },
{ "type": "Feature", "properties": { "id": 253.000000, "osm_id": 1748459975.000000, "name": null, "type": "bus_stop", "ref": null }, "geometry": { "type": "Point", "coordinates": [ 27.119092543051693, 38.473022277721832 ] } },
{ "type": "Feature", "properties": { "id": 254.000000, "osm_id": 1749566376.000000, "name": null, "type": "bus_stop", "ref": null }, "geometry": { "type": "Point", "coordinates": [ 27.121840969102291, 38.473362080076498 ] } },
{ "type": "Feature", "properties": { "id": 255.000000, "osm_id": 1752629020.000000, "name": null, "type": "bus_stop", "ref": null }, "geometry": { "type": "Point", "coordinates": [ 27.13652665019552, 38.466990660198178 ] } },
{ "type": "Feature", "properties": { "id": 256.000000, "osm_id": 1755905519.000000, "name": "Halkap??nar Metro", "type": "bus_stop", "ref": null }, "geometry": { "type": "Point", "coordinates": [ 27.169034939644629, 38.433213434427614 ] } },
{ "type": "Feature", "properties": { "id": 257.000000, "osm_id": 1755905882.000000, "name": "Halkap??nar Metro", "type": "bus_stop", "ref": null }, "geometry": { "type": "Point", "coordinates": [ 27.169220095885745, 38.432873045339733 ] } },
{ "type": "Feature", "properties": { "id": 258.000000, "osm_id": 1780535947.000000, "name": "Postac??lar Mahallesi Son Dura????", "type": "bus_stop", "ref": null }, "geometry": { "type": "Point", "coordinates": [ 27.124144064637278, 38.48194355636457 ] } },
{ "type": "Feature", "properties": { "id": 259.000000, "osm_id": 1782669641.000000, "name": null, "type": "turning_circle", "ref": null }, "geometry": { "type": "Point", "coordinates": [ 27.21619764568814, 38.49353296242549 ] } },
{ "type": "Feature", "properties": { "id": 260.000000, "osm_id": 1798468631.000000, "name": "??zmir Arena Son Durak", "type": "bus_stop", "ref": null }, "geometry": { "type": "Point", "coordinates": [ 27.145865179978216, 38.465629774398906 ] } },
{ "type": "Feature", "properties": { "id": 261.000000, "osm_id": 1798468633.000000, "name": "Turan ??stasyon", "type": "bus_stop", "ref": null }, "geometry": { "type": "Point", "coordinates": [ 27.150915360459294, 38.466114751316525 ] } },
{ "type": "Feature", "properties": { "id": 262.000000, "osm_id": 1798468642.000000, "name": "Karayollar??", "type": "bus_stop", "ref": null }, "geometry": { "type": "Point", "coordinates": [ 27.154158151159063, 38.467803369529861 ] } },
{ "type": "Feature", "properties": { "id": 263.000000, "osm_id": 1798472218.000000, "name": "Turan ??stasyon", "type": "bus_stop", "ref": null }, "geometry": { "type": "Point", "coordinates": [ 27.150982499503726, 38.466014084659435 ] } },
{ "type": "Feature", "properties": { "id": 264.000000, "osm_id": 1817320838.000000, "name": null, "type": "bus_stop", "ref": null }, "geometry": { "type": "Point", "coordinates": [ 27.129749797660708, 38.469685944982643 ] } },
{ "type": "Feature", "properties": { "id": 265.000000, "osm_id": 1678221954.000000, "name": "Sasal??", "type": "motorway_junction", "ref": "K-30\/19" }, "geometry": { "type": "Point", "coordinates": [ 27.028448798114624, 38.494313736706083 ] } },
{ "type": "Feature", "properties": { "id": 266.000000, "osm_id": 1663127394.000000, "name": null, "type": "turning_circle", "ref": null }, "geometry": { "type": "Point", "coordinates": [ 27.069855232153714, 38.467630618505467 ] } },
{ "type": "Feature", "properties": { "id": 267.000000, "osm_id": 1683629035.000000, "name": "??stasyonalt?? 2", "type": "bus_stop", "ref": null }, "geometry": { "type": "Point", "coordinates": [ 27.063000427919373, 38.48936371996794 ] } },
{ "type": "Feature", "properties": { "id": 268.000000, "osm_id": 1690851425.000000, "name": "??akabey Okullar??", "type": "bus_stop", "ref": null }, "geometry": { "type": "Point", "coordinates": [ 26.9578097223866, 38.492403920068 ] } },
{ "type": "Feature", "properties": { "id": 269.000000, "osm_id": 1817508619.000000, "name": null, "type": "bus_stop", "ref": null }, "geometry": { "type": "Point", "coordinates": [ 27.140929161018359, 38.485064725649295 ] } },
{ "type": "Feature", "properties": { "id": 270.000000, "osm_id": 1817508620.000000, "name": null, "type": "bus_stop", "ref": null }, "geometry": { "type": "Point", "coordinates": [ 27.139781259378761, 38.483729320835664 ] } },
{ "type": "Feature", "properties": { "id": 271.000000, "osm_id": 1663127398.000000, "name": null, "type": "turning_circle", "ref": null }, "geometry": { "type": "Point", "coordinates": [ 27.069256931905187, 38.467946951531239 ] } },
{ "type": "Feature", "properties": { "id": 272.000000, "osm_id": 1664656401.000000, "name": null, "type": "level_crossing", "ref": null }, "geometry": { "type": "Point", "coordinates": [ 27.172657346739129, 38.435286279082419 ] } },
{ "type": "Feature", "properties": { "id": 273.000000, "osm_id": 1678187548.000000, "name": "??stasyonalt?? 1", "type": "bus_stop", "ref": null }, "geometry": { "type": "Point", "coordinates": [ 27.065332189563236, 38.487161374909107 ] } },
{ "type": "Feature", "properties": { "id": 274.000000, "osm_id": 1821326308.000000, "name": null, "type": "bus_stop", "ref": null }, "geometry": { "type": "Point", "coordinates": [ 27.127209075170722, 38.474085019225207 ] } },
{ "type": "Feature", "properties": { "id": 275.000000, "osm_id": 1817508621.000000, "name": null, "type": "bus_stop", "ref": null }, "geometry": { "type": "Point", "coordinates": [ 27.138595639174866, 38.482444458898215 ] } },
{ "type": "Feature", "properties": { "id": 276.000000, "osm_id": 1678215606.000000, "name": "Harmandal??", "type": "motorway_junction", "ref": "K-30\/20" }, "geometry": { "type": "Point", "coordinates": [ 27.027725188413655, 38.520447421153705 ] } },
{ "type": "Feature", "properties": { "id": 277.000000, "osm_id": 1817517067.000000, "name": null, "type": "bus_stop", "ref": null }, "geometry": { "type": "Point", "coordinates": [ 27.135409258683438, 38.477329570124624 ] } },
{ "type": "Feature", "properties": { "id": 278.000000, "osm_id": 1817517073.000000, "name": null, "type": "bus_stop", "ref": null }, "geometry": { "type": "Point", "coordinates": [ 27.137222348158929, 38.47716997868821 ] } },
{ "type": "Feature", "properties": { "id": 279.000000, "osm_id": 1817508603.000000, "name": null, "type": "bus_stop", "ref": null }, "geometry": { "type": "Point", "coordinates": [ 27.135607658331566, 38.479710617359132 ] } },
{ "type": "Feature", "properties": { "id": 280.000000, "osm_id": 1817528169.000000, "name": null, "type": "bus_stop", "ref": null }, "geometry": { "type": "Point", "coordinates": [ 27.137571035330918, 38.483779779892785 ] } },
{ "type": "Feature", "properties": { "id": 281.000000, "osm_id": 1817508606.000000, "name": null, "type": "bus_stop", "ref": null }, "geometry": { "type": "Point", "coordinates": [ 27.137356458609702, 38.481575171720095 ] } },
{ "type": "Feature", "properties": { "id": 282.000000, "osm_id": 1817508608.000000, "name": null, "type": "bus_stop", "ref": null }, "geometry": { "type": "Point", "coordinates": [ 27.136685990174836, 38.481062869798109 ] } },
{ "type": "Feature", "properties": { "id": 283.000000, "osm_id": 1821361883.000000, "name": null, "type": "bus_stop", "ref": null }, "geometry": { "type": "Point", "coordinates": [ 27.131026361514017, 38.478733958001357 ] } },
{ "type": "Feature", "properties": { "id": 284.000000, "osm_id": 1817508618.000000, "name": null, "type": "bus_stop", "ref": null }, "geometry": { "type": "Point", "coordinates": [ 27.134835265954138, 38.47898834876267 ] } },
{ "type": "Feature", "properties": { "id": 285.000000, "osm_id": 1823176919.000000, "name": null, "type": "bus_stop", "ref": null }, "geometry": { "type": "Point", "coordinates": [ 27.136594459792178, 38.475107695231394 ] } },
{ "type": "Feature", "properties": { "id": 286.000000, "osm_id": 1823176920.000000, "name": null, "type": "bus_stop", "ref": null }, "geometry": { "type": "Point", "coordinates": [ 27.133745953817709, 38.474885071883108 ] } },
{ "type": "Feature", "properties": { "id": 287.000000, "osm_id": 1699262210.000000, "name": "??zmir Do??al Ya??am Park??", "type": "bus_stop", "ref": null }, "geometry": { "type": "Point", "coordinates": [ 26.960764259436242, 38.488233420325002 ] } },
{ "type": "Feature", "properties": { "id": 288.000000, "osm_id": 1821369383.000000, "name": null, "type": "bus_stop", "ref": null }, "geometry": { "type": "Point", "coordinates": [ 27.121123562009668, 38.477243152702925 ] } },
{ "type": "Feature", "properties": { "id": 289.000000, "osm_id": 1703209056.000000, "name": "??zmir Ticaret Borsas??", "type": "bus_stop", "ref": null }, "geometry": { "type": "Point", "coordinates": [ 27.134424049784428, 38.424497763869709 ] } },
{ "type": "Feature", "properties": { "id": 290.000000, "osm_id": 1821369365.000000, "name": null, "type": "bus_stop", "ref": null }, "geometry": { "type": "Point", "coordinates": [ 27.122083876656262, 38.477243152702925 ] } },
{ "type": "Feature", "properties": { "id": 291.000000, "osm_id": 1840413850.000000, "name": "??dareciler Sitesi Son Durak", "type": "bus_stop", "ref": null }, "geometry": { "type": "Point", "coordinates": [ 27.133905545254123, 38.492912366314528 ] } },
{ "type": "Feature", "properties": { "id": 292.000000, "osm_id": 1821509270.000000, "name": null, "type": "bus_stop", "ref": null }, "geometry": { "type": "Point", "coordinates": [ 27.130066046867427, 38.482442028146295 ] } },
{ "type": "Feature", "properties": { "id": 293.000000, "osm_id": 1821509272.000000, "name": null, "type": "bus_stop", "ref": null }, "geometry": { "type": "Point", "coordinates": [ 27.130677674341996, 38.482996323403142 ] } },
{ "type": "Feature", "properties": { "id": 294.000000, "osm_id": 1821369378.000000, "name": null, "type": "bus_stop", "ref": null }, "geometry": { "type": "Point", "coordinates": [ 27.126986870917619, 38.481740798126793 ] } },
{ "type": "Feature", "properties": { "id": 295.000000, "osm_id": 1823180119.000000, "name": null, "type": "bus_stop", "ref": null }, "geometry": { "type": "Point", "coordinates": [ 27.137055799742853, 38.475132840940908 ] } },
{ "type": "Feature", "properties": { "id": 296.000000, "osm_id": 1821326309.000000, "name": null, "type": "bus_stop", "ref": null }, "geometry": { "type": "Point", "coordinates": [ 27.129199274260259, 38.474181662568782 ] } },
{ "type": "Feature", "properties": { "id": 297.000000, "osm_id": 1823181203.000000, "name": null, "type": "bus_stop", "ref": null }, "geometry": { "type": "Point", "coordinates": [ 27.140462121373531, 38.47617647170506 ] } },
{ "type": "Feature", "properties": { "id": 298.000000, "osm_id": 1821547677.000000, "name": null, "type": "bus_stop", "ref": null }, "geometry": { "type": "Point", "coordinates": [ 27.134953031693723, 38.484440860596067 ] } },
{ "type": "Feature", "properties": { "id": 299.000000, "osm_id": 1821369380.000000, "name": null, "type": "bus_stop", "ref": null }, "geometry": { "type": "Point", "coordinates": [ 27.124331567811282, 38.479615818034233 ] } },
{ "type": "Feature", "properties": { "id": 300.000000, "osm_id": 1823181204.000000, "name": null, "type": "bus_stop", "ref": null }, "geometry": { "type": "Point", "coordinates": [ 27.140545353672053, 38.476243694568495 ] } },
{ "type": "Feature", "properties": { "id": 301.000000, "osm_id": 1821547678.000000, "name": null, "type": "bus_stop", "ref": null }, "geometry": { "type": "Point", "coordinates": [ 27.133017398793868, 38.48398882455794 ] } },
{ "type": "Feature", "properties": { "id": 302.000000, "osm_id": 1849974474.000000, "name": null, "type": "turning_circle", "ref": null }, "geometry": { "type": "Point", "coordinates": [ 27.070532825206268, 38.507129750477418 ] } },
{ "type": "Feature", "properties": { "id": 303.000000, "osm_id": 1823184085.000000, "name": null, "type": "bus_stop", "ref": null }, "geometry": { "type": "Point", "coordinates": [ 27.141341969749671, 38.479076274926967 ] } },
{ "type": "Feature", "properties": { "id": 304.000000, "osm_id": 1823172630.000000, "name": null, "type": "bus_stop", "ref": null }, "geometry": { "type": "Point", "coordinates": [ 27.124245569484714, 38.474221476608875 ] } },
{ "type": "Feature", "properties": { "id": 305.000000, "osm_id": 1854703203.000000, "name": null, "type": "turning_circle", "ref": null }, "geometry": { "type": "Point", "coordinates": [ 27.056781139583677, 38.544712779383929 ] } },
{ "type": "Feature", "properties": { "id": 306.000000, "osm_id": 1858889928.000000, "name": "Buca", "type": "motorway_junction", "ref": "K5" }, "geometry": { "type": "Point", "coordinates": [ 27.21275695825446, 38.361654444826286 ] } },
{ "type": "Feature", "properties": { "id": 307.000000, "osm_id": 1860689722.000000, "name": null, "type": "turning_circle", "ref": null }, "geometry": { "type": "Point", "coordinates": [ 27.130720338229168, 38.392373952319161 ] } },
{ "type": "Feature", "properties": { "id": 308.000000, "osm_id": 1927955925.000000, "name": "??zban Ko??u ??stasyonu", "type": "station", "ref": null }, "geometry": { "type": "Point", "coordinates": [ 27.147289432965461, 38.382972222986524 ] } },
{ "type": "Feature", "properties": { "id": 309.000000, "osm_id": 1937306442.000000, "name": null, "type": "level_crossing", "ref": null }, "geometry": { "type": "Point", "coordinates": [ 27.148005918048739, 38.422976783719861 ] } },
{ "type": "Feature", "properties": { "id": 310.000000, "osm_id": 1964648217.000000, "name": null, "type": "level_crossing", "ref": null }, "geometry": { "type": "Point", "coordinates": [ 27.16338218414441, 38.439303138540254 ] } },
{ "type": "Feature", "properties": { "id": 311.000000, "osm_id": 1967436211.000000, "name": "??zban Salhane ??stasyonu", "type": "station", "ref": null }, "geometry": { "type": "Point", "coordinates": [ 27.172287788628211, 38.450772096652571 ] } },
{ "type": "Feature", "properties": { "id": 312.000000, "osm_id": 1927956324.000000, "name": "??zban ??nk??lap ??stasyonu", "type": "station", "ref": null }, "geometry": { "type": "Point", "coordinates": [ 27.141561659431829, 38.369025239020004 ] } },
{ "type": "Feature", "properties": { "id": 313.000000, "osm_id": 1937306435.000000, "name": null, "type": "level_crossing", "ref": null }, "geometry": { "type": "Point", "coordinates": [ 27.148016563065767, 38.422946357411348 ] } },
{ "type": "Feature", "properties": { "id": 314.000000, "osm_id": 1964648145.000000, "name": null, "type": "level_crossing", "ref": null }, "geometry": { "type": "Point", "coordinates": [ 27.167782096577298, 38.435864043668175 ] } },
{ "type": "Feature", "properties": { "id": 315.000000, "osm_id": 1964648194.000000, "name": null, "type": "level_crossing", "ref": null }, "geometry": { "type": "Point", "coordinates": [ 27.166794456926368, 38.436531997532057 ] } },
{ "type": "Feature", "properties": { "id": 316.000000, "osm_id": 1984982578.000000, "name": null, "type": "level_crossing", "ref": null }, "geometry": { "type": "Point", "coordinates": [ 27.153258689129501, 38.428121763525809 ] } },
{ "type": "Feature", "properties": { "id": 317.000000, "osm_id": 1984982573.000000, "name": null, "type": "level_crossing", "ref": null }, "geometry": { "type": "Point", "coordinates": [ 27.153218623632341, 38.428087565360869 ] } },
{ "type": "Feature", "properties": { "id": 318.000000, "osm_id": 1964648147.000000, "name": null, "type": "level_crossing", "ref": null }, "geometry": { "type": "Point", "coordinates": [ 27.167791316670787, 38.435898577109242 ] } },
{ "type": "Feature", "properties": { "id": 319.000000, "osm_id": 1862000477.000000, "name": null, "type": "bus_stop", "ref": null }, "geometry": { "type": "Point", "coordinates": [ 27.076009979834989, 38.388948855225379 ] } },
{ "type": "Feature", "properties": { "id": 320.000000, "osm_id": 1862000478.000000, "name": null, "type": "bus_stop", "ref": null }, "geometry": { "type": "Point", "coordinates": [ 27.076042166343171, 38.38865448278591 ] } },
{ "type": "Feature", "properties": { "id": 321.000000, "osm_id": 1984982580.000000, "name": null, "type": "level_crossing", "ref": null }, "geometry": { "type": "Point", "coordinates": [ 27.153298670807658, 38.428156045509809 ] } },
{ "type": "Feature", "properties": { "id": 322.000000, "osm_id": 1999938636.000000, "name": "Suphi Kula Park??", "type": "bus_stop", "ref": null }, "geometry": { "type": "Point", "coordinates": [ 27.210314052574514, 38.460650253361592 ] } },
{ "type": "Feature", "properties": { "id": 323.000000, "osm_id": 2011300997.000000, "name": "Evka-4 Muhtarl??????", "type": "bus_stop", "ref": null }, "geometry": { "type": "Point", "coordinates": [ 27.214905826771055, 38.487961679024124 ] } },
{ "type": "Feature", "properties": { "id": 324.000000, "osm_id": 1984982583.000000, "name": null, "type": "level_crossing", "ref": null }, "geometry": { "type": "Point", "coordinates": [ 27.153345944741545, 38.428206756023997 ] } },
{ "type": "Feature", "properties": { "id": 325.000000, "osm_id": 1964648216.000000, "name": null, "type": "level_crossing", "ref": null }, "geometry": { "type": "Point", "coordinates": [ 27.163374891888651, 38.439270197660782 ] } },
{ "type": "Feature", "properties": { "id": 326.000000, "osm_id": 1984982585.000000, "name": null, "type": "level_crossing", "ref": null }, "geometry": { "type": "Point", "coordinates": [ 27.153377041602312, 38.428245396597646 ] } },
{ "type": "Feature", "properties": { "id": 327.000000, "osm_id": 1999938635.000000, "name": "Pazaryeri", "type": "bus_stop", "ref": null }, "geometry": { "type": "Point", "coordinates": [ 27.208192257605191, 38.464485979891862 ] } },
{ "type": "Feature", "properties": { "id": 328.000000, "osm_id": 1976917814.000000, "name": "??zban Bayrakl??", "type": "station", "ref": null }, "geometry": { "type": "Point", "coordinates": [ 27.164400417741945, 38.463977785102458 ] } },
{ "type": "Feature", "properties": { "id": 329.000000, "osm_id": 2025186827.000000, "name": null, "type": "level_crossing", "ref": null }, "geometry": { "type": "Point", "coordinates": [ 27.172733370600923, 38.435287368729824 ] } },
{ "type": "Feature", "properties": { "id": 330.000000, "osm_id": 2025186829.000000, "name": null, "type": "level_crossing", "ref": null }, "geometry": { "type": "Point", "coordinates": [ 27.172814842699779, 38.435288542196275 ] } },
{ "type": "Feature", "properties": { "id": 331.000000, "osm_id": 1976917817.000000, "name": "??zban Nald??ken", "type": "station", "ref": null }, "geometry": { "type": "Point", "coordinates": [ 27.128529644015714, 38.46458161740707 ] } },
{ "type": "Feature", "properties": { "id": 332.000000, "osm_id": 1976917822.000000, "name": "??zban Turan", "type": "station", "ref": null }, "geometry": { "type": "Point", "coordinates": [ 27.149392033376529, 38.466934752903995 ] } },
{ "type": "Feature", "properties": { "id": 333.000000, "osm_id": 1976936317.000000, "name": "??zban Alaybey", "type": "station", "ref": null }, "geometry": { "type": "Point", "coordinates": [ 27.121456658841794, 38.460641871458421 ] } },
{ "type": "Feature", "properties": { "id": 334.000000, "osm_id": 1976936320.000000, "name": "??zban Kar????yaka", "type": "station", "ref": null }, "geometry": { "type": "Point", "coordinates": [ 27.11556376181565, 38.45794289863656 ] } },
{ "type": "Feature", "properties": { "id": 335.000000, "osm_id": 2100368283.000000, "name": "D??????m", "type": "bus_stop", "ref": null }, "geometry": { "type": "Point", "coordinates": [ 27.039054755476201, 38.514891644273206 ] } },
{ "type": "Feature", "properties": { "id": 336.000000, "osm_id": 2068914352.000000, "name": null, "type": "bus_stop", "ref": null }, "geometry": { "type": "Point", "coordinates": [ 27.093026165286574, 38.497331724762738 ] } },
{ "type": "Feature", "properties": { "id": 337.000000, "osm_id": 2026317903.000000, "name": "Ege ??niversitesi", "type": "station", "ref": null }, "geometry": { "type": "Point", "coordinates": [ 27.228923470181343, 38.459679964250228 ] } },
{ "type": "Feature", "properties": { "id": 338.000000, "osm_id": 2036247777.000000, "name": "Asans??r", "type": "bus_stop", "ref": null }, "geometry": { "type": "Point", "coordinates": [ 27.117667787150253, 38.407868822344767 ] } },
{ "type": "Feature", "properties": { "id": 339.000000, "osm_id": 2100375756.000000, "name": "2.Ana Jet ??ss??", "type": "bus_stop", "ref": null }, "geometry": { "type": "Point", "coordinates": [ 27.026019638755912, 38.513230267245177 ] } },
{ "type": "Feature", "properties": { "id": 340.000000, "osm_id": 2105494942.000000, "name": null, "type": "turning_circle", "ref": null }, "geometry": { "type": "Point", "coordinates": [ 27.150211280592714, 38.433555080800971 ] } },
{ "type": "Feature", "properties": { "id": 341.000000, "osm_id": 2022731370.000000, "name": "G??ng??r", "type": "bus_stop", "ref": null }, "geometry": { "type": "Point", "coordinates": [ 27.125919016453309, 38.410735265592017 ] } },
{ "type": "Feature", "properties": { "id": 342.000000, "osm_id": 2113451755.000000, "name": "Y??zba???? ??erafettin Mahallesi Son Dura????", "type": "bus_stop", "ref": null }, "geometry": { "type": "Point", "coordinates": [ 27.098476078729984, 38.363363179607262 ] } },
{ "type": "Feature", "properties": { "id": 343.000000, "osm_id": 2115814672.000000, "name": "Fahrettin Altay", "type": "station", "ref": null }, "geometry": { "type": "Point", "coordinates": [ 27.069692958508284, 38.396889367377781 ] } },
{ "type": "Feature", "properties": { "id": 344.000000, "osm_id": 2067210104.000000, "name": null, "type": "level_crossing", "ref": null }, "geometry": { "type": "Point", "coordinates": [ 27.151470074811328, 38.433743757441391 ] } },
{ "type": "Feature", "properties": { "id": 345.000000, "osm_id": 2067210156.000000, "name": null, "type": "level_crossing", "ref": null }, "geometry": { "type": "Point", "coordinates": [ 27.166828738910336, 38.434617235571096 ] } },
{ "type": "Feature", "properties": { "id": 346.000000, "osm_id": 2115814729.000000, "name": "Poligon", "type": "station", "ref": null }, "geometry": { "type": "Point", "coordinates": [ 27.087623525777047, 38.392985579793731 ] } },
{ "type": "Feature", "properties": { "id": 347.000000, "osm_id": 2132572337.000000, "name": "??ZYUVA", "type": "bus_stop", "ref": null }, "geometry": { "type": "Point", "coordinates": [ 27.242021618813482, 38.476908547128232 ] } },
{ "type": "Feature", "properties": { "id": 348.000000, "osm_id": 2025118201.000000, "name": "Slovakya Konsoloslu??u", "type": "bus_stop", "ref": null }, "geometry": { "type": "Point", "coordinates": [ 27.173920583366424, 38.453786229033767 ] } },
{ "type": "Feature", "properties": { "id": 349.000000, "osm_id": 1976314226.000000, "name": "Basmane Gar", "type": "station", "ref": null }, "geometry": { "type": "Point", "coordinates": [ 27.145014416806106, 38.422548636105745 ] } },
{ "type": "Feature", "properties": { "id": 350.000000, "osm_id": 2067210165.000000, "name": null, "type": "level_crossing", "ref": null }, "geometry": { "type": "Point", "coordinates": [ 27.166969219607523, 38.43504965795583 ] } },
{ "type": "Feature", "properties": { "id": 351.000000, "osm_id": 2067210169.000000, "name": null, "type": "level_crossing", "ref": null }, "geometry": { "type": "Point", "coordinates": [ 27.166973829654268, 38.435077150598232 ] } },
{ "type": "Feature", "properties": { "id": 352.000000, "osm_id": 2100368363.000000, "name": "Ege Sanayi", "type": "bus_stop", "ref": null }, "geometry": { "type": "Point", "coordinates": [ 27.034740086998596, 38.51646819644111 ] } },
{ "type": "Feature", "properties": { "id": 353.000000, "osm_id": 2100368292.000000, "name": "Neyhan", "type": "bus_stop", "ref": null }, "geometry": { "type": "Point", "coordinates": [ 27.039837289956466, 38.512100638154486 ] } },
{ "type": "Feature", "properties": { "id": 354.000000, "osm_id": 2115814692.000000, "name": "Hatay", "type": "station", "ref": null }, "geometry": { "type": "Point", "coordinates": [ 27.102981016409643, 38.401506035826714 ] } },
{ "type": "Feature", "properties": { "id": 355.000000, "osm_id": 2067210178.000000, "name": null, "type": "level_crossing", "ref": null }, "geometry": { "type": "Point", "coordinates": [ 27.151284918570212, 38.441024949090149 ] } },
{ "type": "Feature", "properties": { "id": 356.000000, "osm_id": 2067210180.000000, "name": null, "type": "level_crossing", "ref": null }, "geometry": { "type": "Point", "coordinates": [ 27.151460016527523, 38.441050094799692 ] } },
{ "type": "Feature", "properties": { "id": 357.000000, "osm_id": 2115814723.000000, "name": "??zmirspor", "type": "station", "ref": null }, "geometry": { "type": "Point", "coordinates": [ 27.109955262764174, 38.40170636331257 ] } },
{ "type": "Feature", "properties": { "id": 358.000000, "osm_id": 2025118209.000000, "name": "Slovakya Konsoloslu??u", "type": "bus_stop", "ref": null }, "geometry": { "type": "Point", "coordinates": [ 27.173770379661562, 38.454000721935984 ] } },
{ "type": "Feature", "properties": { "id": 359.000000, "osm_id": 2106761963.000000, "name": "Teksif Sitesi", "type": "bus_stop", "ref": null }, "geometry": { "type": "Point", "coordinates": [ 27.20774776527989, 38.488682438878016 ] } },
{ "type": "Feature", "properties": { "id": 360.000000, "osm_id": 2106761876.000000, "name": "Evka 4 Anaokulu", "type": "bus_stop", "ref": null }, "geometry": { "type": "Point", "coordinates": [ 27.214818068244824, 38.489396744666436 ] } },
{ "type": "Feature", "properties": { "id": 361.000000, "osm_id": 2100368287.000000, "name": "??erbet??i", "type": "bus_stop", "ref": null }, "geometry": { "type": "Point", "coordinates": [ 27.040375324321186, 38.50815116919815 ] } },
{ "type": "Feature", "properties": { "id": 362.000000, "osm_id": 2161324596.000000, "name": "Remzi Bey", "type": "bus_stop", "ref": null }, "geometry": { "type": "Point", "coordinates": [ 27.115074761584509, 38.462520591235744 ] } },
{ "type": "Feature", "properties": { "id": 363.000000, "osm_id": 2161324594.000000, "name": "Remzi Bey", "type": "bus_stop", "ref": null }, "geometry": { "type": "Point", "coordinates": [ 27.114754321426176, 38.462303499943538 ] } },
{ "type": "Feature", "properties": { "id": 364.000000, "osm_id": 2192880868.000000, "name": null, "type": "bus_stop", "ref": null }, "geometry": { "type": "Point", "coordinates": [ 27.149421453856689, 38.427556823251933 ] } },
{ "type": "Feature", "properties": { "id": 365.000000, "osm_id": 2135376266.000000, "name": "Buca", "type": "motorway_junction", "ref": "K5" }, "geometry": { "type": "Point", "coordinates": [ 27.205448693058425, 38.36369208548777 ] } },
{ "type": "Feature", "properties": { "id": 366.000000, "osm_id": 2203560852.000000, "name": null, "type": "bus_stop", "ref": null }, "geometry": { "type": "Point", "coordinates": [ 27.204678647613889, 38.369375351115529 ] } },
{ "type": "Feature", "properties": { "id": 367.000000, "osm_id": 2203560854.000000, "name": null, "type": "bus_stop", "ref": null }, "geometry": { "type": "Point", "coordinates": [ 27.19680376576332, 38.373669232473276 ] } },
{ "type": "Feature", "properties": { "id": 368.000000, "osm_id": 2161324590.000000, "name": "Bahriye ????ok", "type": "bus_stop", "ref": null }, "geometry": { "type": "Point", "coordinates": [ 27.115856122598331, 38.46628079681841 ] } },
{ "type": "Feature", "properties": { "id": 369.000000, "osm_id": 2192880905.000000, "name": null, "type": "bus_stop", "ref": null }, "geometry": { "type": "Point", "coordinates": [ 27.147436535366154, 38.425909527821226 ] } },
{ "type": "Feature", "properties": { "id": 370.000000, "osm_id": 2203560865.000000, "name": null, "type": "bus_stop", "ref": null }, "geometry": { "type": "Point", "coordinates": [ 27.196551638115864, 38.373623132005832 ] } },
{ "type": "Feature", "properties": { "id": 371.000000, "osm_id": 2203560867.000000, "name": null, "type": "bus_stop", "ref": null }, "geometry": { "type": "Point", "coordinates": [ 27.203246347999592, 38.370834724277103 ] } },
{ "type": "Feature", "properties": { "id": 372.000000, "osm_id": 2203560855.000000, "name": null, "type": "bus_stop", "ref": null }, "geometry": { "type": "Point", "coordinates": [ 27.200236993303207, 38.37174742971365 ] } },
{ "type": "Feature", "properties": { "id": 373.000000, "osm_id": 2190596156.000000, "name": "Bah??elievler", "type": "bus_stop", "ref": null }, "geometry": { "type": "Point", "coordinates": [ 27.118061233685239, 38.402024875633138 ] } },
{ "type": "Feature", "properties": { "id": 374.000000, "osm_id": 2203560859.000000, "name": null, "type": "bus_stop", "ref": null }, "geometry": { "type": "Point", "coordinates": [ 27.204169027900946, 38.369678189277209 ] } },
{ "type": "Feature", "properties": { "id": 375.000000, "osm_id": 2190605296.000000, "name": null, "type": "bus_stop", "ref": null }, "geometry": { "type": "Point", "coordinates": [ 27.118146729097589, 38.403916419722322 ] } },
{ "type": "Feature", "properties": { "id": 376.000000, "osm_id": 2203560861.000000, "name": null, "type": "bus_stop", "ref": null }, "geometry": { "type": "Point", "coordinates": [ 27.203364449015311, 38.371078721478483 ] } },
{ "type": "Feature", "properties": { "id": 377.000000, "osm_id": 2274819491.000000, "name": "Siesta Konutlar??", "type": "bus_stop", "ref": null }, "geometry": { "type": "Point", "coordinates": [ 27.086855743446364, 38.487142347988907 ] } },
{ "type": "Feature", "properties": { "id": 378.000000, "osm_id": 2301660402.000000, "name": null, "type": "turning_circle", "ref": null }, "geometry": { "type": "Point", "coordinates": [ 27.074206697186241, 38.514007185850339 ] } },
{ "type": "Feature", "properties": { "id": 379.000000, "osm_id": 2201234401.000000, "name": null, "type": "level_crossing", "ref": null }, "geometry": { "type": "Point", "coordinates": [ 27.153099097693087, 38.424798841831716 ] } },
{ "type": "Feature", "properties": { "id": 380.000000, "osm_id": 2192881075.000000, "name": null, "type": "bus_stop", "ref": null }, "geometry": { "type": "Point", "coordinates": [ 27.147374844558811, 38.43497388555113 ] } },
{ "type": "Feature", "properties": { "id": 381.000000, "osm_id": 2203552751.000000, "name": "Dokuz Eyl??l ??niversitesi Giri??i", "type": "bus_stop", "ref": null }, "geometry": { "type": "Point", "coordinates": [ 27.194061290863999, 38.375718188704042 ] } },
{ "type": "Feature", "properties": { "id": 382.000000, "osm_id": 2192881085.000000, "name": "Mimar Sinan", "type": "bus_stop", "ref": null }, "geometry": { "type": "Point", "coordinates": [ 27.148718631275585, 38.430313631205699 ] } },
{ "type": "Feature", "properties": { "id": 383.000000, "osm_id": 2192881105.000000, "name": null, "type": "bus_stop", "ref": null }, "geometry": { "type": "Point", "coordinates": [ 27.149834430226036, 38.427737620903372 ] } },
{ "type": "Feature", "properties": { "id": 384.000000, "osm_id": 2192881107.000000, "name": null, "type": "bus_stop", "ref": null }, "geometry": { "type": "Point", "coordinates": [ 27.146216381721185, 38.431549375190571 ] } },
{ "type": "Feature", "properties": { "id": 385.000000, "osm_id": 2199952417.000000, "name": "Buca Stad??", "type": "bus_stop", "ref": null }, "geometry": { "type": "Point", "coordinates": [ 27.218080388778986, 38.340697172321569 ] } },
{ "type": "Feature", "properties": { "id": 386.000000, "osm_id": 2199952551.000000, "name": "Olduruk", "type": "bus_stop", "ref": null }, "geometry": { "type": "Point", "coordinates": [ 27.229168557030135, 38.356418940466057 ] } },
{ "type": "Feature", "properties": { "id": 387.000000, "osm_id": 2274819460.000000, "name": "Siesta Konutlar?? Yolu", "type": "bus_stop", "ref": null }, "geometry": { "type": "Point", "coordinates": [ 27.089951096469317, 38.486928358000881 ] } },
{ "type": "Feature", "properties": { "id": 388.000000, "osm_id": 2321962064.000000, "name": null, "type": "turning_circle", "ref": null }, "geometry": { "type": "Point", "coordinates": [ 27.282582486460456, 38.544909754108517 ] } },
{ "type": "Feature", "properties": { "id": 389.000000, "osm_id": 2308308427.000000, "name": null, "type": "turning_circle", "ref": null }, "geometry": { "type": "Point", "coordinates": [ 27.11681098900786, 38.471163590693095 ] } },
{ "type": "Feature", "properties": { "id": 390.000000, "osm_id": 2313712453.000000, "name": null, "type": "level_crossing", "ref": null }, "geometry": { "type": "Point", "coordinates": [ 27.094283534581646, 38.455789168616121 ] } },
{ "type": "Feature", "properties": { "id": 391.000000, "osm_id": 2357388048.000000, "name": null, "type": "helipad", "ref": null }, "geometry": { "type": "Point", "coordinates": [ 27.102513138574494, 38.397217854163131 ] } },
{ "type": "Feature", "properties": { "id": 392.000000, "osm_id": 2313712631.000000, "name": null, "type": "turning_circle", "ref": null }, "geometry": { "type": "Point", "coordinates": [ 27.067375194642722, 38.466268223963652 ] } },
{ "type": "Feature", "properties": { "id": 393.000000, "osm_id": 2355578255.000000, "name": null, "type": "bus_stop", "ref": null }, "geometry": { "type": "Point", "coordinates": [ 27.115322446823285, 38.401858662493225 ] } },
{ "type": "Feature", "properties": { "id": 394.000000, "osm_id": 2331569936.000000, "name": null, "type": "motorway_junction", "ref": null }, "geometry": { "type": "Point", "coordinates": [ 27.066517893586138, 38.387088491816002 ] } },
{ "type": "Feature", "properties": { "id": 395.000000, "osm_id": 2355578258.000000, "name": null, "type": "helipad", "ref": null }, "geometry": { "type": "Point", "coordinates": [ 27.072004771222566, 38.401936362735626 ] } },
{ "type": "Feature", "properties": { "id": 396.000000, "osm_id": 2335300737.000000, "name": null, "type": "turning_circle", "ref": null }, "geometry": { "type": "Point", "coordinates": [ 27.270268464870185, 38.519026437108693 ] } },
{ "type": "Feature", "properties": { "id": 397.000000, "osm_id": 2336914468.000000, "name": "??htiyari", "type": "bus_stop", "ref": null }, "geometry": { "type": "Point", "coordinates": [ 27.16675388851499, 38.389987959761783 ] } },
{ "type": "Feature", "properties": { "id": 398.000000, "osm_id": 2355153213.000000, "name": null, "type": "bus_stop", "ref": null }, "geometry": { "type": "Point", "coordinates": [ 27.117658650875796, 38.403660017304247 ] } },
{ "type": "Feature", "properties": { "id": 399.000000, "osm_id": 2355578304.000000, "name": null, "type": "helipad", "ref": null }, "geometry": { "type": "Point", "coordinates": [ 27.072420848896087, 38.401619275338582 ] } },
{ "type": "Feature", "properties": { "id": 400.000000, "osm_id": 2394880475.000000, "name": "??ocuk Hastahanesi", "type": "bus_stop", "ref": null }, "geometry": { "type": "Point", "coordinates": [ 27.139362834772328, 38.428130983619326 ] } },
{ "type": "Feature", "properties": { "id": 401.000000, "osm_id": 2394880476.000000, "name": "Efes Oteli", "type": "bus_stop", "ref": null }, "geometry": { "type": "Point", "coordinates": [ 27.136584150051274, 38.42853012984844 ] } },
{ "type": "Feature", "properties": { "id": 402.000000, "osm_id": 2355581117.000000, "name": "Gaziemir Air Base", "type": "aerodrome", "ref": "LTBK" }, "geometry": { "type": "Point", "coordinates": [ 27.162913551937972, 38.323311093482936 ] } },
{ "type": "Feature", "properties": { "id": 403.000000, "osm_id": 2516548288.000000, "name": "Poligon Metro", "type": "bus_stop", "ref": null }, "geometry": { "type": "Point", "coordinates": [ 27.084753059216268, 38.393309624170428 ] } },
{ "type": "Feature", "properties": { "id": 404.000000, "osm_id": 2516548290.000000, "name": "Selma Yi??italp Lisesi", "type": "bus_stop", "ref": null }, "geometry": { "type": "Point", "coordinates": [ 27.085772298642155, 38.395285574024541 ] } },
{ "type": "Feature", "properties": { "id": 405.000000, "osm_id": 2486824667.000000, "name": null, "type": "turning_circle", "ref": null }, "geometry": { "type": "Point", "coordinates": [ 27.068142557878275, 38.505417160021011 ] } },
{ "type": "Feature", "properties": { "id": 406.000000, "osm_id": 2493852014.000000, "name": null, "type": "turning_circle", "ref": null }, "geometry": { "type": "Point", "coordinates": [ 27.04318284278915, 38.504413846211143 ] } },
{ "type": "Feature", "properties": { "id": 407.000000, "osm_id": 2441691715.000000, "name": "Kasaba", "type": "bus_stop", "ref": null }, "geometry": { "type": "Point", "coordinates": [ 27.096071897442727, 38.369247862368269 ] } },
{ "type": "Feature", "properties": { "id": 408.000000, "osm_id": 2550770369.000000, "name": "D??mb??ll??", "type": "bus_stop", "ref": null }, "geometry": { "type": "Point", "coordinates": [ 27.174731281041346, 38.472601841458641 ] } },
{ "type": "Feature", "properties": { "id": 409.000000, "osm_id": 2472906788.000000, "name": null, "type": "bus_stop", "ref": null }, "geometry": { "type": "Point", "coordinates": [ 27.208317064143444, 38.368284697874593 ] } },
{ "type": "Feature", "properties": { "id": 410.000000, "osm_id": 2516548301.000000, "name": "H??fz??ss??hha", "type": "bus_stop", "ref": null }, "geometry": { "type": "Point", "coordinates": [ 27.088084698089659, 38.393139136259862 ] } },
{ "type": "Feature", "properties": { "id": 411.000000, "osm_id": 2520057760.000000, "name": null, "type": "turning_circle", "ref": null }, "geometry": { "type": "Point", "coordinates": [ 27.176162658646287, 38.470525224947409 ] } },
{ "type": "Feature", "properties": { "id": 412.000000, "osm_id": 2561883047.000000, "name": "Sadullah Sever ??lkokulu", "type": "bus_stop", "ref": null }, "geometry": { "type": "Point", "coordinates": [ 27.090980142721914, 38.386828066084405 ] } },
{ "type": "Feature", "properties": { "id": 413.000000, "osm_id": 2561613955.000000, "name": "Nalkesen", "type": "bus_stop", "ref": null }, "geometry": { "type": "Point", "coordinates": [ 27.101127777617961, 38.470772239633931 ] } },
{ "type": "Feature", "properties": { "id": 414.000000, "osm_id": 2561613958.000000, "name": "Vali Erol ??ak??r Lisesi", "type": "bus_stop", "ref": null }, "geometry": { "type": "Point", "coordinates": [ 27.107186217231771, 38.468582383610823 ] } },
{ "type": "Feature", "properties": { "id": 415.000000, "osm_id": 2561639206.000000, "name": "Lunapark", "type": "bus_stop", "ref": null }, "geometry": { "type": "Point", "coordinates": [ 27.111820822953518, 38.462140136650703 ] } },
{ "type": "Feature", "properties": { "id": 416.000000, "osm_id": 2566123100.000000, "name": null, "type": "motorway_junction", "ref": "K6" }, "geometry": { "type": "Point", "coordinates": [ 27.229719918620873, 38.370563234433291 ] } },
{ "type": "Feature", "properties": { "id": 417.000000, "osm_id": 2868556648.000000, "name": "Otob??s Dura????", "type": "bus_stop", "ref": null }, "geometry": { "type": "Point", "coordinates": [ 27.248181144179568, 38.467273130335116 ] } },
{ "type": "Feature", "properties": { "id": 418.000000, "osm_id": 2868556646.000000, "name": "Otob??s Dura????", "type": "bus_stop", "ref": null }, "geometry": { "type": "Point", "coordinates": [ 27.248945573749008, 38.469043891199561 ] } },
{ "type": "Feature", "properties": { "id": 419.000000, "osm_id": 2949534457.000000, "name": "Otob??s Dura????", "type": "bus_stop", "ref": null }, "geometry": { "type": "Point", "coordinates": [ 27.250833178343669, 38.471622667529914 ] } },
{ "type": "Feature", "properties": { "id": 420.000000, "osm_id": 2907855857.000000, "name": "Atat??rk Bulvar??", "type": "bus_stop", "ref": null }, "geometry": { "type": "Point", "coordinates": [ 27.113478847220279, 38.462173161349199 ] } },
{ "type": "Feature", "properties": { "id": 421.000000, "osm_id": 2586988099.000000, "name": null, "type": "bus_stop", "ref": null }, "geometry": { "type": "Point", "coordinates": [ 27.19432926030845, 38.470739550211562 ] } },
{ "type": "Feature", "properties": { "id": 422.000000, "osm_id": 2597226713.000000, "name": null, "type": "turning_circle", "ref": null }, "geometry": { "type": "Point", "coordinates": [ 27.1208169519916, 38.324164119768909 ] } },